,STATION_ID,NUM_DOCKS_AVAILABLE,NUM_MECHANICAL,NUM_E_BIKES,NAME,LAT,LON
1278,1062250686,26,5,5,11 Novembre 1918 - 8 Mai 1945,48.80889533774377,2.5382421165704727
1272,1062179194,23,1,1,18 juin 1940 - Buzenval,48.868807,2.185428
1259,1057387136,3,18,8,8 Mai 1945 - 10 Juillet 1940,48.784567029674,2.3979035764933
765,210574471,14,0,0,Abbeville - Faubourg Poissonnière,48.879223,2.349147
794,213680917,16,5,4,Abbé Carton - Plantes,48.827673823165846,2.320918142795563
428,76121343,0,8,5,Abbé Groult - Convention,48.83596927866069,2.302064039509349
69,15290700,15,2,1,Aboukir - Alexandrie,48.86868344444473,2.3502043269474897
1174,653187900,25,3,7,Adolphe Lalyre - Armand Silvestre,48.90406266961591,2.273416221141815
793,213680553,42,6,4,Adolphe Pinard - Victor Hugo,48.8236825874564,2.3077843710780144
1390,11437651826,2,11,15,Adrien Lesesne - Docteur Bauer,48.90263867304635,2.348248063431511
58,13242682,19,6,5,Alexander Fleming - Belvédère,48.88179064200294,2.4030599377642674
494,82571023,34,4,6,Alexandre Dumas - Place de la Réunion,48.85533710742046,2.3997703687646292
462,82417874,24,22,9,Alexandre Dumas - Voltaire,48.852888670365,2.3891476408096
1193,911767210,14,1,7,Alexandre Parodi - Quai de Valmy,48.87935941942529,2.366596162319184
215,39217683,14,7,6,Alfred Roll - Berthier,48.88780857052871,2.30009529817631
388,66491388,26,0,3,Alfred de Vigny - Place du Général Brocard,48.87836138361425,2.305254448220567
747,210386007,18,0,0,Alger - Rivoli,48.864773553495,2.3294493936128
635,123095125,14,40,1,Alibert - Jemmapes,48.8710440519842,2.366104461987773
1305,1063410400,14,4,3,Alouettes - Maréchal de Lattre de Tassigny,48.85511009293948,2.4930700287222862
1151,653135378,23,9,4,Amaury Duval - Gabriel Péri,48.81718759671675,2.323841750621796
742,208795867,10,1,5,Ambroise Rendu - Porte Brunet,48.883667,2.395733
1187,813544903,4,22,1,Amelot - Saint-Sébastien,48.86114216276092,2.367799618107727
1129,653099465,9,1,18,Amédée Huon - Fort d'Ivry,48.805131376899986,2.388489693403244
862,217572769,25,1,0,Anatole France - Jean Lolive,48.8949922,2.4253764
964,378626842,40,7,2,Anatole France - Louise Michel,48.88873214926474,2.2881576418876652
1063,583539396,19,4,5,Anatole France - President Roosevelt,48.9155156,2.3814103
1275,1062223873,13,5,5,Ancien Canal - Hélène Brion,48.89484799296163,2.4188338592648506
1138,653118283,12,10,3,Ancienne Mairie - André Morizet,48.838311,2.234077
744,209063434,15,7,7,André Karman - République,48.91039875761846,2.3851355910301213
1003,457834134,20,6,2,André Maurois - Joseph et Marie Hackin,48.8778983,2.2789591
547,99950133,48,6,0,André Mazet - Saint-André des Arts,48.85375581057431,2.3390958085656166
1324,1074428106,23,2,1,André Theuriet - Blagis,48.77977325745441,2.3130525648593903
774,210737808,12,5,6,Aqueduc - Villette,48.883886063895,2.367198803315
313,54000577,5,14,7,Arago - Glacière,48.83486054775774,2.3445770524322067
1332,1558958733,24,1,3,Arche - Léonard de Vinci,48.89790972494496,2.2383723043644914
1091,653040243,4,19,1,Archives - Pastourelle,48.8623615,2.3595041
658,128880156,19,2,2,Archives - Rivoli,48.857346707443455,2.3539767041802406
506,84958519,25,2,0,Arcole - Notre-Dame,48.85388354132773,2.3493797332048416
178,34300292,15,5,3,Argenson - Château,48.888559314669514,2.2642001509666447
1374,3906153622,0,4,12,Argenteuil - Voltaire,48.91864865955558,2.2814112156629562
1082,640629438,19,1,1,Aristide Briand - Gare de Bagneux,48.79387269664978,2.321148812770844
613,102335085,0,38,7,Aristide Briand - Place de la Résistance,48.82124248401006,2.2511002421379094
54,11375742,15,6,4,Arsonval - Falguière,48.84040040365445,2.313117867297474
668,128932790,23,1,2,Arsène Houssaye - Champs-Elysées,48.873409276267,2.2977904602885
1440,16659964929,0,0,0,Arsène Houssaye - Friedland,48.874510616163,2.2994716674148
526,85160045,20,0,6,Arthur Auger - Jean Jaurès,48.813736445585235,2.3069277405738835
499,82574979,16,2,5,Arthur Ranc - Hôpital Bichat,48.8978712500682,2.333521842956543
267,49474389,21,1,1,Artois - Berri,48.87393521240818,2.3064258322119713
57,13191324,32,0,1,Assas - Luxembourg,48.84373446877937,2.333428381875887
61,13356269,31,1,0,Assas - Rennes,48.8492084999386,2.32851454623001
206,37936869,34,1,0,Assas - Vaugirard,48.848274111398,2.3292413726449
762,210568512,57,2,0,Assemblée Nationale,48.86141101465194,2.320121418520769
17,7261,19,0,0,Athènes - Clichy,48.878113787876,2.32956021945824
1205,991351798,22,1,0,Aubervilliers - Curial,48.89088305227546,2.3688579350709915
895,255322397,24,1,1,Auguste Blanqui - Corvisart,48.8300989,2.3502726
1288,1062812659,47,5,8,Auguste Blanqui - Glacière,48.831151602964354,2.3438221961259837
1084,648227675,33,3,3,Auguste Cain - Jean Moulin,48.82577028927573,2.3210415244102482
1408,12806084887,25,3,11,Avenir,48.8103438,2.3003776
1113,653079520,11,1,6,Averroès - Aimé Césaire,48.91405323432864,2.412636950612068
1287,1062807847,29,18,1,BNF - Bibliothèque Nationale de France,48.8350268238,2.3760157451034
1026,486833337,26,1,0,Bachaumont - Montmartre,48.86617395079137,2.3449775576591496
871,221043930,14,4,18,Bagnolet - Orteaux,48.85708641027236,2.3984125256538396
422,74864208,22,4,0,Bagnolet - Place Saint-Blaise,48.85973,2.40334
324,54000592,0,30,3,Balard - Montagne de la Fage,48.83850740333351,2.2782871127128606
270,49791363,30,0,0,Balzac - Champs Elysées,48.872699639621,2.3001953959465
1243,1057221951,3,10,14,Balzac - Olympes de Gouges,48.77850332486751,2.4006786569952965
987,434419150,36,0,0,Bara - Henri Farman,48.833218027457846,2.2677567601203923
1306,1063421211,29,3,8,Barbès - Monique Maunoury,48.81552718820216,2.3687169334905405
1293,1062882947,4,7,10,Bargue -  Dutot,48.837884,2.308876
1301,1063044618,0,22,5,Bas - Gabriel Péri,48.91585580539625,2.2948095202445984
1362,2515829865,8,10,2,Basilique,48.93626891059109,2.3588666820200914
20,7304,15,0,0,Bassano -  Iéna,48.868144510482075,2.296149600985935
1331,1396728955,3,12,2,Bastille - Beaumarchais,48.853833463852,2.3685702681541
512,84986959,39,20,2,Bastille - Biscornet,48.851355779579,2.369220033288
1226,1056979685,8,13,1,Bastille - Quai de la Rapée,48.84682410855,2.3669364675879
1391,11437706131,1,8,4,Bateliers - Quai de Seine,48.915817585516,2.3239533298594
708,129095489,27,1,0,Batignolles - Abel Truchet,48.88310390458221,2.323834749088381
452,82375611,27,2,15,Batignolles - Beudant,48.88216401466375,2.319852970540523
858,215495494,42,1,3,Batignolles - Place de Clichy,48.88347453575669,2.326493114233017
454,82381710,12,1,1,Batignolles - Rome,48.881823370566806,2.3202589899301524
329,54000597,7,12,2,Bayen - Pereire,48.881804409079656,2.2921088710427284
374,66491367,12,0,3,Beaubourg - Michel-le-Comte,48.862534941806,2.3543103039265
874,224256188,26,3,0,Beaujon - Wagram,48.875352455985,2.2964416444302
919,284711589,8,6,1,Beaumarchais - Pas de la Mule,48.855580507049055,2.368433367343057
909,266963426,26,18,3,Beaumarchais - Saint-Gilles,48.8580378,2.3679352
756,210405211,15,1,0,Beaux-Arts - Bonaparte,48.856451985395786,2.334851883351803
103,27362896,22,1,1,Beffroy,48.886591074487995,2.261394560337067
1342,1981490798,8,6,8,Belfort - Victor Hugo,48.9018492,2.3172724
251,43165673,7,25,5,Belfort - Voltaire,48.8563358,2.3829901
439,80216231,37,1,1,Belidor - Gouvion-Saint-Cyr,48.88022154052015,2.2854680567979813
1101,653059015,29,1,1,Bellefond - Maubeuge,48.878255397645,2.3452642187476
673,129004826,9,6,2,Bellefond - Poissonnière,48.87759897050706,2.348463758826256
698,129080400,20,0,2,Belles Feuilles - Place de Mexico,48.865804746474,2.2829206287861
48,52474,17,0,3,Belleville -  Pré Saint-Gervais,48.875565910073,2.3930460959673
717,129121741,10,16,24,Belleville - Couronnes,48.868831082877,2.3809862136841
714,129114993,27,0,5,Belleville - Porte des Lilas,48.87660391892763,2.404769691129476
896,256124192,31,0,9,Belleville - Pyrénées,48.8741908,2.3860039
641,124402232,38,0,2,Belleville - Télégraphe,48.8756045,2.3995549
603,102313219,12,8,11,Belliard - Damrémont,48.89669238777841,2.338023450388167
486,82562496,14,2,3,Benjamin Delessert - Jean Lolive,48.89392043619345,2.417981922626496
810,213688169,31,0,4,Benjamin Godard - Victor Hugo,48.865983,2.275725
102,27359295,30,0,0,Benoît Frachon - République,48.85230729014318,2.415605485439301
120,27363389,9,16,2,Bercy - Traversiére,48.846192642574,2.3703800886869
577,101013666,20,10,2,Bercy - Villot,48.841795009027,2.3767850184816
145,27415012,41,17,6,Bercy.,48.839966914994,2.3788625746965
218,39296638,32,1,1,Berri - Haussmann,48.874746047357135,2.3082953318953514
958,365886904,27,5,3,Berthier - Place Stuart Merril,48.885927922355044,2.2933450341224675
1119,653085678,21,0,1,Berthier - Porte de Clichy,48.894222687781,2.3125872006816
455,82387816,29,0,0,Bertie Albrecht - Hoche,48.87614039826388,2.301303138307601
353,54000627,7,5,7,Bertrand Sincholle - Henri Barbusse,48.89925982394349,2.3042294383049016
1029,488889101,28,3,0,Bessières - Porte de Clichy,48.89611762451474,2.31790903955698
1281,1062685145,12,0,0,Bibliothèque Nationale - Richelieu,48.868288993515,2.3380893096328
1405,12196660096,10,13,3,Bichat - Grange aux Belles,48.873688,2.365015
739,205955605,35,1,0,Bienfaisance - Place de Narvik,48.87660163459077,2.3129771277308464
1210,1021176825,14,6,1,Billancourt - Général Leclerc ,48.8322649,2.2380413
359,54000634,7,10,6,Bineau - Louise Michel,48.88666162206972,2.2843274474143986
154,27415224,28,1,3,Bir Hakeim,48.853844054333514,2.289705348222022
427,75641607,28,1,1,Blaise-Desgoffe - Vaugirard,48.846128877747,2.3242672160268
284,54000542,12,13,1,Blancs-Manteaux - Archives,48.85941800703,2.3559471219778
1386,11146714746,17,5,4,Blanqui - Docteur Bauer,48.907735489085,2.3407192814591
950,349750111,18,7,0,Bleue - Trévise,48.87578906564573,2.347289621829987
242,42588096,19,6,3,Bobillot - Moulin des Prés,48.828657346203094,2.353020646316964
149,27415150,19,0,3,Bobillot - Paulin Mery,48.829899841747384,2.3543356766748507
314,54000578,1,18,14,Bobillot - Tolbiac,48.8255961335041,2.350204177200794
887,244498842,43,4,1,Bois de Vincennes - Gare,48.836022242886884,2.4708339950830287
467,82425449,46,2,1,Bois de Vincennes - Polygone,48.83544491617421,2.431421081436563
1110,653076373,26,3,3,Bois de Vincennes - Porte Jaune,48.838751246689455,2.4605489149689674
999,452936197,54,1,5,Bois de Vincennes.,48.8338064,2.4132221
1062,583178525,0,0,19,Boissière - Etienne Dolet,48.876111,2.4677312
1387,11218473640,16,0,7,Bons Raisins - Voltaire,48.87282451461399,2.1947155570850896
1057,571923059,29,7,10,Bordier - Félix Faure,48.90390751882016,2.3830059170722966
1356,2515686699,19,0,5,Borrégo - Gambetta,48.87330497045532,2.4014145880937576
663,128890772,23,3,1,Bosquet - Saint-Dominique,48.85865170952645,2.303716580234576
926,292871105,8,0,13,Botzaris - Crimée,48.87959698690176,2.3887913337477067
825,213694482,17,1,2,Botzaris - Parc des Buttes Chaumont,48.877951,2.381464
769,210582921,9,1,2,Boudreau - Auber,48.87219,2.329423
416,72765603,18,1,0,Boulangers - Cardinal Lemoine,48.8462904,2.3521495
586,101740379,42,2,1,Boulard - Daguerre,48.83446472680611,2.3293386027216907
565,100906707,26,13,4,Boulets - Faubourg Saint-Antoine,48.849259262115,2.3917546141943
1021,478952881,1,17,5,Boulets - Voltaire,48.85218705621,2.3890301585197
904,265201872,37,12,0,Bourdon - Pont Morland,48.8478103,2.3659356
562,100893610,36,16,6,Bourdonnais - Tour Eiffel,48.860897797941,2.295599598447
1282,1062704564,11,27,0,Bourg l'Abbé - Saint-Martin,48.86393331949257,2.352406270802021
946,338824395,9,4,2,Bourse du Travail,48.868976638825686,2.362343855202198
147,27415123,1,22,5,Boussingault - Tolbiac,48.82603516605852,2.342176808004326
787,213675430,7,39,3,Boutroux - Porte de Vitry,48.822632,2.377738
830,213702608,11,2,5,Boyer - Ménilmontant,48.86889516267913,2.3919824145634565
857,214298601,11,5,7,Boyer-Barret - Raymond Losserand,48.83329880233322,2.3173383995890617
670,128986726,29,0,0,Boétie - Ponthieu,48.871417284354834,2.307678759098053
1437,16560752067,0,0,0,Bracion - Périphérique,48.826103771275,2.3004549373748
929,303102719,6,3,1,Brancion - Lefebvre,48.82900222785569,2.301431038163409
1200,979059925,23,3,3,Bridaine - Lamandé,48.8862074,2.3206239
790,213677219,2,7,8,Brillat-Savarin - Küss,48.822203,2.350422
490,82566934,27,19,4,Brochant - Clichy,48.89032998912038,2.319730559929781
704,129089749,14,12,5,Brochant - Square des Batignolles ,48.88818698581028,2.316861143151153
65,13912564,24,1,0,Bruant - Vincent Auriol,48.83484845292942,2.366826499627087
1114,653080383,20,23,4,Bruneseau - Quai d'Ivry,48.82494563758295,2.388566136360169
555,100790494,23,1,0,Bréa - Raspail,48.842738478257814,2.329794221763396
118,27363337,6,21,4,Bréguet - Sabin,48.856931678257,2.3706749462105
1284,1062783107,21,5,1,Buffon - Jardin des Plantes,48.842668466104875,2.3618587106466293
913,271426439,5,4,10,Buisson Saint-Louis - Saint-Maur,48.87174684930295,2.3722528328789854
911,268976295,26,1,5,Butte aux Cailles - Esperance,48.82758774190948,2.3492151126265526
342,54000615,45,5,0,Buzenval - Avron,48.851617204998654,2.401513597307666
225,39776330,4,7,6,Buzenval - Vignoles,48.85385817168762,2.400004081428051
1407,12225289563,12,1,15,Béranger - Félix Faure,48.80404828621485,2.2848263373723436
1289,1062827573,26,4,0,Bézout - Général Leclerc,48.82884804502439,2.3285973072052
31,36473,13,0,0,Cadet - La Fayette,48.875601632672,2.3435704037547
1267,1057758764,11,21,3,Cadix - Hameau,48.8340107632249,2.289516180753708
132,27414512,31,7,0,Caire - Dussoubs,48.86785342111862,2.349364310503006
405,66491408,22,0,9,Calmette,48.88104925098552,2.424993216991425
654,128841079,27,2,1,Cambon - Rivoli,48.866143390992,2.3251800647137
341,54000612,30,9,1,Cambrai - Benjamin Constant,48.89594736851349,2.381133802246315
321,54000589,24,33,8,Cambronne - Mademoiselle,48.843277330035214,2.30230766886348
475,82455731,11,42,8,Cambronne - Villa Croix Nivert,48.845847561366,2.3017574474216
1077,620676855,1,15,5,Camille Groult - Guy Môquet,48.787482746521306,2.3976725712418556
1160,653144717,19,1,5,Camille Risch - Paul Armangot,48.774703,2.373685
972,391845823,13,2,10,Candale - Mehul,48.8893935006175,2.414379715919495
1382,11004671601,0,17,6,Capitaine Glarner - Gabriel Péri,48.902449900418745,2.3304807533425724
312,54000573,32,8,4,Cardinal Lavigerie,48.832934193699835,2.402636749399156
882,235513935,16,0,11,Carducci - Place Hannah Arendt,48.877436681515796,2.3860743641853337
817,213691137,30,0,0,Carnot - Général Lanrezac,48.8754438707356,2.2938242935035684
1079,631773910,2,19,4,Carnot - Pâquerettes,48.79592939432515,2.4261841177940373
258,49039283,1,8,9,Carpeaux - Place Jacques Froment,48.8906542,2.3309428
1096,653046369,23,5,6,Carrefour Pleyel,48.92034156960326,2.3438543826341625
1389,11266280626,31,0,0,Cartier Bresson - Denis Papin,48.902616,2.397814
889,251039991,22,0,3,Cassini - Denfert-Rochereau,48.837525839067,2.3360354080796
799,213683992,0,45,5,Cauchy - Cévennes,48.8433725710224,2.275132834911347
710,129101773,36,2,5,Caulaincourt - Place Constantin Pecqueur,48.8896779050281,2.33817871442611
680,129026597,19,1,0,Caumartin - Provence,48.874422773426545,2.3284685611724854
701,129086648,41,1,0,Ceinture du Lac Inferieure - Saint-Cloud,48.86218070933143,2.2617871686816216
235,41610121,15,11,2,Censier - Jardin des Plantes,48.84107178161383,2.355475388467312
554,100783424,47,20,1,Censier - Santeuil,48.840658921385234,2.3537524044513702
902,263610599,39,3,3,Centenaire - Sorins,48.85853523359734,2.4273508787155156
262,49341735,30,4,5,Centquatre,48.88933353845543,2.3707854375243187
751,210395439,22,0,2,Centre Georges Pompidou,48.861419,2.352581
1127,653094517,30,6,3,Cesaria Evora - Rosa Parks,48.89717672825043,2.3745173960924144
802,213685090,0,20,6,Cevennes - Bergers,48.84240765130395,2.281037718057633
1347,2514995690,28,1,1,Chabanais - Petits Champs,48.86703740186721,2.336716018617153
632,121025345,3,5,1,Chabrol - d'Hauteville,48.87701838803332,2.3513179644942284
662,128889359,22,15,2,Champ de Mars - Cler,48.856691550115315,2.306646779179573
838,213922790,41,0,4,Champeaux - Gallieni,48.864459134684644,2.4161778017878532
430,76199461,15,7,8,Championnet - Vauvenargues,48.89401874744574,2.3319872841238976
228,39882420,1,4,16,Championnet.,48.8953643,2.3498166
1319,1074347188,15,3,1,Champs de Manoeuvre - Cartoucherie,48.835261,2.447974
1208,1015246367,25,0,0,Champs-Elysees - Bassano,48.87181180781605,2.3002389818429947
1233,1057061349,15,12,3,Chancé Milly - Cimetière Communal Sud,48.89687189382465,2.303922325372696
1013,475524450,6,12,5,Chanzy - Sud-Est,48.888912037698766,2.195632159709931
273,49859500,0,16,1,Charenton - Diderot,48.846171461187,2.3793068155646
18,7268,22,7,2,Charenton - Jardiniers,48.833821772922654,2.394692664106047
464,82421013,9,19,3,Charenton - Place du Col Bourgoin,48.844867319554,2.3825789350545
576,101011685,7,16,3,Charenton - Prague,48.848175129981,2.3763584494312
107,27363096,0,26,4,Charenton - Wattignies,48.83667579640627,2.391795855555629
541,97824043,1,13,5,Charentonneau - Maisons Alfort,48.809932980484355,2.443288456496946
72,15299574,5,35,3,Charles Delescluze,48.85242200848887,2.380632497370243
220,39535340,10,14,4,Charles Frérot - Albert Guilpin,48.8155839183714,2.3505029082298283
1018,478385490,18,2,10,Charles Gide - Fort de Bicêtre ,48.8071937956922,2.353984415531159
1229,1057003116,0,28,1,Charles Lecocq - Lecourbe,48.84044,2.294867
733,131094294,11,9,8,Charles Tillon - Cimetière Communal,48.91844023641836,2.3935630917549138
936,314829539,30,3,16,Charles de Gaulle - Beauté,48.83649602312711,2.479562651149885
975,402212574,19,7,1,Charles de Gaulle - Graviers,48.88315175918637,2.2648814320564274
948,339797666,21,1,4,Charles de Gaulle - Jean Lolive,48.8932644350857,2.4126765131950383
890,252301607,22,0,0,Charles de Gaulle - Madrid,48.884432270368,2.2608044743538
947,338853596,22,0,2,Charles de Gaulle - Orléans ,48.88092225101522,2.271581590175629
901,262607058,29,1,2,Charles de Gaulle - Plateau de Vanves,48.82233088973263,2.298571803412886
1425,16043242148,19,1,4,Charles de Gaulle - Rue de l'Alma,48.896620592993,2.252313240191
1361,2515802454,16,5,5,Charles de Gaulle - Sablonville,48.87991924860035,2.2763770446181297
163,27415371,22,6,5,Charonne - Alexandre Dumas,48.85607741505607,2.394869327545166
402,66491405,16,5,2,Charonne - Avron,48.85160266522164,2.398403047037931
868,221036108,21,8,18,Charonne - Bureau,48.854176,2.396093
364,55664548,15,15,4,Charonne - Faubourg Saint-Antoine,48.852191909696,2.3740932717919
105,27363029,5,24,3,Charonne - Philippe-Auguste,48.855603162026,2.39054639062
15,7247,12,4,7,Charonne - Pierre Bayle,48.858445054261914,2.39039812238911
1041,516709288,7,4,9,Charonne - Robert et Sonia Delauney,48.85590755596891,2.3925706744194035
878,230877798,28,4,1,Chartres - La Charbonnière,48.8847601,2.3534657
1161,653146273,2,8,9,Chausson - Gabriel Péri,48.921891003481115,2.2952306270599365
362,54001189,23,0,1,Chaussée d'Antin - Haussmann,48.87243,2.33359
438,80101533,14,3,11,Chazelles - Courcelles ,48.879406604954,2.3034455627202988
1274,1062206433,4,2,14,Chemin Vert - Fraternité,48.877141208359035,2.4461565166711807
777,210744286,3,25,16,Chemin Vert - Saint-Maur,48.86112461407359,2.381299026310444
1253,1057354004,11,13,3,Chemin de Bretagne,48.825147,2.25936
587,101742129,27,8,2,Cherche-Midi - Hôpital Necker,48.84461063309956,2.317914068698883
44,52329,35,1,1,Chernoviz - Raynouard,48.8569864146289,2.282173218142987
578,101015227,23,11,1,Chevaleret - Louise Weiss,48.83258651335057,2.371211388119954
788,213676294,13,3,4,Chevaleret - Tolbiac,48.82941,2.375934
19,7295,11,2,2,Chevreuse - Montparnasse,48.841739161230905,2.331552216736739
1055,569583918,42,0,0,Choiseul - Quatre Septembre ,48.8699355331869,2.3359975218772893
229,39887632,20,0,5,Choisy - Malmaisons,48.821919702956144,2.3633468834070914
996,452341449,18,3,5,Choisy - Tolbiac,48.82591155587,2.3602393269539
77,15310509,11,5,1,Choron - Martyrs,48.877851443502536,2.3396701365709305
617,102341385,12,10,1,Château - Bineau,48.890404028589806,2.270106375217438
1291,1062844489,31,1,1,Château - Place de Catalogne,48.836805542262134,2.3185293003916745
491,82567101,0,0,0,Château - République,48.862923800596,2.4155035614967
1164,653152142,6,7,4,Château - République,48.905928,2.253629
396,66491396,48,1,2,Château de Vincennes,48.84423193255657,2.439209537709179
1412,13341879803,4,14,5,Châteaudun - Place de la Liberté,48.90970830301211,2.2454486480600626
1235,1057081237,8,2,13,Cimetière d'Issy-les-Moulineaux,48.81769977392539,2.260931208729744
1232,1057045129,14,22,4,Cimetière de Boulogne-Billancourt,48.830764,2.252024
1069,596813170,11,0,4,Cimetière de Fontenay-sous-Bois,48.84706173362218,2.4787822365760808
601,102309973,31,2,8,Cimetière de Montmartre,48.886472466141925,2.3328901827335358
1250,1057324291,51,4,3,Cimetière de Montrouge,48.822009,2.322188699
535,95845524,1,11,2,Cité Riverin - Château d'Eau,48.870702423554306,2.358739863900845
560,100868590,20,4,1,Cité Vaneau,48.8542210666207,2.319614924490452
1044,523900881,57,1,0,Cité de la Musique,48.888796556487,2.3925811931922
500,82577019,21,2,7,Cité des Sciences et de l'Industrie,48.89659571178903,2.384599149227142
666,128928526,14,1,0,Clapeyron - Moscou,48.88078819514121,2.324815057218075
1094,653044270,14,2,1,Claude Bernard - Arbalète,48.83976676978202,2.347510904073715
354,54000628,45,1,6,Claude Debussy - Marc Bloch,48.910388180512,2.3117771744728
122,27363489,1,14,11,Claude Decaen - Cannebière,48.83761417037952,2.397253782195704
391,66491391,8,12,10,Claude Vellefaux - Hôpital Saint-Louis,48.87285913900304,2.370071706985146
1107,653069115,13,9,9,Claude Vellefaux - Sambre et Meuse,48.875022,2.370478
1381,10773448319,15,8,3,Clef des Champs - Albert Dhalenne,48.914938,2.330665
1121,653087180,26,3,2,Clichy - Douai,48.88411831886975,2.3287287354469304
652,126354477,18,0,2,Clichy - Place Blanche,48.883601088297,2.3332237824798
602,102311820,18,9,7,Clignancourt - Ordener,48.891457726153774,2.348636478060487
1354,2515658032,8,4,5,Clignancourt - Sofia,48.88511992309783,2.34719488842051
285,54000543,21,0,1,Cloître Saint-Merri - Renard,48.85883544889818,2.351827919483185
237,42341698,42,1,0,Cléry - Montmartre,48.867458,2.3445211
633,121086415,21,2,0,Colisée - Champs-Elysées,48.870475399387,2.3076190799475
628,109609241,28,1,1,Colmar - Victor Hugo,48.88652251096166,2.173960916697979
53,10968855,18,0,1,Colonel Monteil - Brune,48.82650293311,2.3092747998272
14,7234,20,9,0,Colonel Pierre Avia,48.8296843300915,2.275342586850291
355,54000629,21,13,1,Commandant Charcot - Bretteville,48.87530570765423,2.2558460757136345
264,49403716,25,1,1,Commandant Rivière,48.872933,2.309796
640,124390478,13,2,2,Commandant l'Herminier - Gallieni,48.847040552603,2.4160453677177
697,129079313,28,12,3,Commerce - Letellier,48.84797660373612,2.2966245196598805
1071,597245295,2,3,26,Concorde - Stalingrad,48.7985844,2.3821302
261,49117995,13,2,1,Condorcet - Turgot,48.87985155789093,2.345232367515564
1065,586649404,3,13,9,Conservatoire de Musique,48.77093586667601,2.4034014344215398
660,128884445,61,1,1,Constantine - Université,48.860680473738334,2.314848195584221
1432,16210188070,15,1,11,Convention - Campus de Bobigny,48.914920058264,2.4172238067445
479,82499609,1,30,3,Convention - Lourmel,48.84205504165568,2.2859910875558853
336,54000607,1,13,4,Convention - Saint-Charles,48.84315611111599,2.2831090539693832
593,101756482,2,35,10,Convention - Vaugirard,48.83767682233156,2.295586926020252
741,208603342,19,0,0,Coquillière - Louvre,48.86379590966231,2.3425736278295517
411,66505516,16,25,4,Cordelières - Arago,48.83548071896613,2.348572461702221
1280,1062671597,19,1,1,Cossonnerie - Sébastopol,48.86132665908402,2.349419631063938
160,27415327,17,6,2,Courcelles - Pierre Demours,48.883769733273496,2.29858466343129
672,129001431,26,3,2,Courcelles - Place des Ternes,48.878199928923124,2.2992860188665043
403,66491406,45,3,0,Cours de Vincennes - Davout,48.847238029966,2.4107042336225
1246,1057290902,38,5,1,Cours de Vincennes - Soult,48.846918761569,2.4105220288038
1142,653125838,21,7,0,Cours de l'Ile Seguin - Parc Billancourt,48.82714055843935,2.234234511852265
90,15462861,30,0,1,Crevaux - Bugeaud,48.870809428669546,2.281149007691853
161,27415333,42,5,7,Crimée - Ourcq,48.894104140316266,2.372946088467279
322,54000590,2,37,8,Croix Nivert - Square Saint-Lambert,48.8430515215905,2.295200452208519
315,54000581,18,9,7,Croulebarde - Corvisart,48.830981659316855,2.3481646925210953
569,100923502,12,3,0,Crozatier - Faubourg Saint-Antoine,48.850440013405,2.378901366211
25,35908,18,0,0,Cujas - Saint-Michel,48.848191348584,2.341831654854
87,15433394,8,12,19,Custine - Ramey,48.888735896947,2.3469526693225
269,49772483,8,3,7,Damrémont - Caulaincourt,48.88714509078738,2.3325880989432335
496,82572699,6,12,12,Damrémont - Ordener,48.893400392981874,2.336266523912805
1134,653110492,0,14,11,Danielle Casanova - Ledru-Rollin,48.815783497876815,2.383259721100331
133,27414527,18,0,1,Danielle Casanova - Opéra,48.867643242297284,2.3333894088864326
131,27414460,34,1,0,Danielle Casanova - Place Vendôme,48.86826649822326,2.3304839059710503
556,100798076,14,3,2,Danton - Serpente,48.85229736258167,2.3414132371544834
433,76507850,27,2,4,Dantzig - Lefebvre,48.83013921586756,2.295934036374092
84,15411223,16,4,4,Dareau - Broussais,48.8307758,2.3361804
395,66491395,9,22,8,Daumesnil - Hébrard,48.8429,2.38474
997,452347778,0,14,15,Daumesnil - Picpus,48.8374688,2.401765
749,210389577,14,1,1,Daunou - Louis le Grand,48.869113,2.332515
795,213681356,18,1,3,David Weill - Parc Montsouris,48.821092374256104,2.333725690841675
348,54000622,24,3,0,Davout - Volga,48.852919679957296,2.410522909779111
530,88230992,24,4,2,De Toqueville - Terrasse,48.882428,2.314002
1031,491687415,19,0,3,Delizy - Louis Nadot,48.896212845581346,2.4094578623771667
738,205938683,46,2,2,Delphine Seyrig - Général Leclerc,48.893923963057865,2.39790290594101
1325,1109534105,0,0,20,Demi-Lune - Aristide Briand,48.87626381919953,2.4562818557024
259,49085250,2,11,5,Departement - Pajol,48.886674849730184,2.3613611608743668
596,101763163,1,9,2,Desaix - Edgar Faure,48.852804604940296,2.293077029857222
1378,9931940126,19,12,6,Diane Arbus,48.898800717199,2.3524022474884987
311,54000572,3,11,6,Diderot - Pierre Bourdan,48.847648620797,2.3902582749724
1194,912377361,5,31,7,Diderot - Reuilly,48.847208456061,2.3861273378134
792,213680246,30,5,0,Didot - Mariniers,48.82650543613106,2.313136198271666
585,101738550,12,1,9,Didot - Place de Moro-Giafferi,48.8337,2.3215
1399,11851103861,21,0,4,Division Leclerc - Kléber,48.798666226364,2.2833752789972
1400,11851327865,30,0,0,Docteur Calmette - Martre,48.898969358483,2.3086513252383
344,54000617,20,0,0,Docteurs Déjérine - Pte de Montreuil,48.85398448133697,2.41208288897222
37,37995,9,34,6,Dom-Pérignon - Gravelle,48.82548157443457,2.4098803102970128
129,27399547,1,17,2,Dominique Pado - Croix Nivert,48.83648798164934,2.2897250577807426
1380,10647608657,17,7,5,Dora Maar - Nadia Guendouz,48.905452421305,2.3220406472683
679,129025451,24,0,2,Douai - Bruxelles,48.88320784122797,2.3308449949028507
43,38522,22,2,0,Douai - Pierre Fontaine,48.88229101148092,2.33324121683836
310,54000571,0,39,13,Dugommier,48.838811048815,2.3896577954292
11,6497,17,2,1,Duhamel - André Gide,48.8365662244334,2.312707121097412
468,82429586,24,6,10,Duméril - Jeanne d'Arc,48.83815160808658,2.357108449556404
772,210585225,18,1,1,Dunkerque - Alsace,48.879355,2.358379
773,210586093,15,5,2,Dunkerque - Rocroy,48.880726,2.351464
935,312870435,7,3,3,Dunkerque - Trudaine,48.88215166773376,2.3463253676891327
876,224598098,34,11,5,Dunois - Clisson,48.832294,2.3674523
393,66491393,6,35,5,Dupleix - du Guesclin,48.85147910413369,2.296709530055523
561,100872260,26,11,2,Duroc - Place de Breteuil,48.84746064114221,2.3126140236854558
478,82468690,40,13,3,Dutot - Place Alleray,48.836826091766,2.3071701095578
1136,653114003,22,0,3,Dôme - République,48.832681,2.250257
1014,476053320,22,0,2,Ecole Militaire - Place Joffre,48.852060203582795,2.301799356937409
1341,1968156458,0,26,8,Ecole Vétérinaire,48.81488859822486,2.4224362157778994
446,82332239,36,0,0,Ecoles - Carmes,48.848904447989405,2.3473486304283147
316,54000582,25,1,0,Edgar Quinet - Gaité,48.84116092896631,2.32459545135498
737,205047993,46,0,0,Edgar Quinet - Raspail,48.83940266673835,2.32971478253603
1173,653184632,16,8,7,Edith Cavell - Volta,48.901616564286975,2.269354350864887
326,54000594,26,0,1,Edouard Pailleron - Bouret,48.880597694070524,2.3769494891166687
97,27246227,22,2,0,Edouard Pailleron - Simon Bolivar ,48.87979886049996,2.374839261174202
945,338762459,3,11,15,Edouard Poisson - Victor Hugo,48.91118557052621,2.379864752692811
1058,572566600,18,1,11,Edouard Tremblay - Julian Grimaux,48.781383825117,2.3723508417606
839,213936755,49,0,0,Edouard Vaillant - Galliéni,48.858462881661,2.4147954583168
891,252339799,23,1,3,Edouard Vaillant - Paul-Adolphe Souriau,48.83484585882868,2.2479459643363957
51,63297,2,13,5,Eglise d'Auteuil,48.84749841771691,2.26848387135299
969,389788858,13,56,3,Emeriau - Beaugrenelle,48.84791249714942,2.2843059897422795
695,129077035,21,27,3,Emeriau - Place de Brazzaville,48.850785261674964,2.2871585190296173
371,63769334,5,8,23,Emile Blemont - Poteau,48.8943782,2.3415122
190,35317080,2,9,7,Emile Reynaud - Porte de la Villette ,48.90098953630053,2.3887022584676743
1028,488872892,17,22,1,Emile Zola - Fondary,48.847051143113745,2.2953405976295476
629,117480156,32,13,0,Enfants du Paradis - Peupliers,48.833122686454,2.2571459412575
685,129038848,9,3,0,Enghien - Faubourg Poissonnière,48.872420063053,2.3483952362828
408,66505510,57,4,1,Epée de Bois - Mouffetard,48.841508690388835,2.350066713988781
1348,2515049357,22,0,0,Erasme - Ulm,48.84264375274712,2.3445946723222733
1236,1057091571,22,5,0,Esplanade du Foncet - Camille Desmoulins,48.827090233494964,2.2606857866048813
525,85155919,15,7,9,Estienne d'Orves - Henri Ginoux,48.815388220397274,2.320886790760933
752,210396518,16,0,0,Estrapade - Ulm,48.84512772828039,2.3454568170361734
414,70736110,11,8,13,Etienne Dolet - Place Maurice Chevalier,48.86798303359366,2.3851405311143026
604,102314792,25,0,4,Etienne Jodelle - Saint Ouen,48.88794016394694,2.326124420314341
277,54000465,23,1,1,Etienne Marcel - Montorgueil,48.86450567259199,2.3461959511041637
898,256561528,25,18,0,Eugène Oudiné - Dessous Des Berges,48.8256423,2.3750226
1358,2515738489,16,0,3,Eugène Reisz - Davout,48.85631874632638,2.410396970808506
1307,1063429705,11,2,10,Eugène Varlin - Place de la Paix,48.792862,2.363093
181,35080917,3,3,20,Euryale Dehaynin - Loire,48.886248917304805,2.3774591088294987
521,85143075,25,1,3,Evariste Galois,48.87308753734472,2.4133380129933357
488,82563707,19,6,5,Exelmans - Michel-Ange,48.84309486651855,2.2597770800669053
487,82562556,23,19,4,Exelmans - Versailles,48.84097491091973,2.264390252530575
806,213686471,21,0,2,Eylau - Trocadéro,48.863354122371,2.2864209115505
1060,581480367,65,0,0,Fabre d'Eglantine - Place de la Nation,48.8471116,2.3956204
463,82419429,3,31,9,Faidherbe - Dahomey,48.851358329771806,2.383823134795429
934,312165511,24,4,3,Faubourg Du Temple - Republique,48.867872484749,2.3648982158072
226,39799329,32,1,0,Faubourg Montmartre - La Fayette,48.87525454905335,2.340853661298752
1211,1021553839,29,3,2,Faubourg Poissonniere - Delta,48.882555807626765,2.3497482016682625
1222,1056947780,22,5,2,Faubourg Poissonnière - Dunkerque,48.880883445404436,2.349934279918671
1423,15826185972,14,0,1,Faubourg St-Antoine - Place de la Nation,48.8487726,2.393606
812,213688824,25,3,1,Faustin Hélie - Desbordes-Valmore,48.859403,2.276522
27,36151,14,0,0,Favart - Italiens,48.87144635392104,2.338290105850787
432,76488849,28,2,4,Fernand Braudel - Vincent Auriol ,48.83637852318147,2.3723404482007027
423,75313725,28,4,2,Ferrus - Saint-Jacques,48.8313878,2.3408563
1231,1057039016,0,12,6,Fessart - Château,48.84245,2.23989
1139,653121023,21,1,1,Fief - République,48.83170888166024,2.255771979689598
538,96608796,8,11,3,Fille du Calvaire - Turenne,48.86210505412563,2.3649600148200993
630,120564786,56,0,0,Filles Saint-Thomas - Place de la Bourse,48.86889989085307,2.3397543845203477
824,213694069,10,2,12,Flandre - Alphonse Karr,48.89465,2.381868
193,35471668,3,8,17,Flandre - Ourcq,48.89260159189023,2.3790915682911873
401,66491404,4,6,7,Flandre - Riquet,48.888013281448,2.3737595955229
271,49807107,6,4,3,Flandrin - Henri Martin,48.8643275,2.2724174
42,38407,33,4,4,Flandrin - Longchamp,48.86877849178477,2.274354539176829
1421,15189890802,23,0,0,Fontaine du Tertre - Calvaire,48.8702539,2.2187778
527,85162552,31,8,5,Fontainebleau - Edmond Michelet,48.80956436844049,2.3626908659935
386,66491385,11,8,4,Fontenay - Libération,48.84780306364685,2.445141971111298
1257,1057378487,3,6,8,Fort d'Aubervilliers,48.91502382370325,2.4035281687974925
399,66491401,51,0,2,Fragonard - Porte de Clichy,48.894155633419,2.3143893107772
1106,653066427,18,2,4,Franciade - Gabriel Péri,48.93261499331498,2.355954498052597
419,74692052,14,5,14,Francoeur - Caulaincourt,48.8899944409612,2.342529706656933
711,129103849,3,11,5,Francoeur - Marcadet,48.89104123261663,2.340014585442034
323,54000591,15,10,12,Franquet - Labrouste,48.83287705011431,2.306762784719467
995,443654970,29,0,0,Française - Etienne Marcel,48.864053304653766,2.347587011754513
410,66505513,28,0,2,François 1er - Lincoln,48.86951797934417,2.302426218841562
409,66505511,28,0,0,François 1er - Montaigne,48.866887649978096,2.306675575720671
837,213911772,47,1,7,François Debergue - Croix de Chavaux,48.857421708072074,2.437578141689301
223,39599631,23,0,0,François Ponsard - La Muette ,48.8583666,2.2744515
910,267976590,13,49,1,François Truffaut - Saint Emilion,48.83372354344807,2.386601903271428
1290,1062833975,27,4,1,Froidevaux - Boulard,48.83514731962543,2.3294411972165108
459,82405965,0,37,4,Froment - Bréguet,48.8570414504784,2.37289470306807
165,27415411,17,2,4,Frères Flavien - Porte des Lilas,48.8780992764359,2.41104629853209
800,213684314,6,17,1,Fédération - Suffren,48.852828153442346,2.2978776320815086
597,102287315,1,41,0,Félix Faure - Convention,48.841249336041045,2.288386600849503
892,253357936,3,52,0,Félix Faure - Lourmel,48.83868901709515,2.2818081825971603
360,54000635,27,0,0,Félix Faure - Sadi Carnot,48.90812110228388,2.378623187541962
713,129107656,14,2,8,Félix Ziem - Armand Gauthier,48.88949630486821,2.333393658804396
365,55927887,6,26,1,Gabriel Lamé,48.8351212784276,2.385534569621086
1076,620403530,0,14,5,Gabriel Péri - Danielle Casanova,48.790114,2.4025777
743,209057581,3,1,14,Gabriel Péri - Francisco Ferrer,48.88633710236977,2.407338917255402
651,126175087,10,4,8,Gabrielle Josserand - Edouard Vaillant,48.90271566255436,2.3933270573616032
89,15462236,30,0,0,Galilée - Kléber,48.86741186571367,2.290781380114821
293,54000551,11,0,1,Galilée - Vernet,48.871715878697,2.2985444962978
903,263732151,21,2,8,Gambetta - Michelet,48.85273792380526,2.429966032505036
164,27415389,17,1,11,Gambetta - Père Lachaise,48.864295696165875,2.398228667282044
239,42517412,14,2,7,Gambetta - Saint Fargeau,48.871244610447015,2.4039056897163396
350,54000624,0,0,0,Gambetta - Tourelles,48.875337902264,2.4059921130538
1403,11908496227,23,0,1,Gardenat Lapostol - Franklin Roosevelt,48.871839,2.222505
1296,1063000561,19,1,0,Gardenat-Lapostol - Velettes,48.87387,2.224185
1435,16529895896,0,0,0,Gare - Aristide Briand,48.821410564722,2.2555950104387
854,214134714,16,2,9,Gare Arcueil - Cachan,48.799824,2.328171
38,38060,43,0,0,Gare Montparnasse - Arrivée,48.843827994315,2.3225811123848
240,42541542,31,2,0,Gare Montparnasse - Edgar Quinet,48.841487851079,2.3233232282801
472,82445192,35,2,1,Gare Montparnasse - René Mouchotte,48.83920384329242,2.320883944630623
320,54000588,64,0,0,Gare Montparnasse - Vaugirard,48.8418071798797,2.31951002690117
1415,13373801574,7,15,4,Gare RER,48.896241412268,2.4595758300992
1149,653133605,29,4,8,Gare RER - Canadiens,48.81995307955795,2.464176752459464
1419,15066765479,23,6,11,Gare RER - Général de Gaulle,48.933548439566,2.3064726536317
852,214119792,0,10,8,Gare RER - Malleret-Joinville,48.802936,2.42531
1132,653106960,1,33,2,Gare RER - Maurice Grandcoing,48.813881,2.392429
855,214139374,25,1,4,Gare RER de Gentilly,48.814280450380224,2.3410347104072575
1102,653059879,14,10,9,Gare RER de Saint-Denis,48.93554324248177,2.3471488058567047
625,102749572,45,1,1,Gare RER de Vincennes,48.847563015126106,2.433383166790009
1258,1057383154,6,38,5,Gare RER les Ardoines,48.783856363467,2.4079093717471
1256,1057373549,3,9,6,Gare RER les Grésillons,48.919898633572764,2.31458459136273
881,235241110,50,5,6,Gare Rer de Fontenay sous Bois,48.8436279,2.4630465
1273,1062192012,11,12,12,Gare Rosny-Bois-Perrier,48.88115023337061,2.480436824262142
834,213868408,25,1,4,Gare Routière de Saint Cloud,48.84288183896324,2.222245037555695
928,302725495,29,10,11,Gare SNCF Vanves-Malakoff,48.819002163836444,2.292150005103606
974,394404659,43,0,0,Gare Saint-Lazare - Cour du Havre,48.87567440085132,2.3265598341822624
665,128920403,21,1,1,Gare Saint-Lazare - Isly,48.874777677621296,2.326515804784655
767,210581084,23,0,1,Gare Saint-Lazare - Place de Budapest,48.877753,2.327339
296,54000554,30,1,0,Gare Saint-Lazare - Stockholm,48.877127316667654,2.322417162358761
1245,1057234527,30,2,5,Gare d'Argenteuil,48.947022436806705,2.256898172199726
1201,985086307,1,15,3,Gare d'Asnières sur Seine,48.90636459217474,2.2835066914558415
784,210753033,3,8,1,Gare d'Austerlitz,48.842524,2.364044
1310,1064000778,46,5,3,Gare d'Austerlitz - Pont Charles de Gaulle,48.842319830109304,2.3670300096273422
188,35196898,27,0,0,Gare d'Austerlitz - Quai Saint-Bernard,48.84369030864,2.3657163977623
1295,1062982815,10,0,8,Gare de Bellevue,48.8192404685572,2.2295309230685234
465,82421994,23,10,0,Gare de Bercy,48.839794573906,2.3826066032052
1171,653175838,11,1,6,Gare de Chaville Rive Gauche,48.80516030434533,2.188277207314968
833,213857398,2,3,7,Gare de Clamart,48.81383535598703,2.272278964519501
914,271540743,15,2,7,Gare de Clichy-Levallois ,48.89679827481989,2.2984680533409123
1056,570185777,0,0,0,Gare de Courbevoie,48.8993867,2.2506506
849,214102967,42,0,1,Gare de Laplace,48.80893199114179,2.3349460959434514
570,100925033,16,25,1,Gare de Lyon - Chalon,48.845666194202,2.3741452395916
397,66491397,41,13,5,Gare de Lyon - Place Louis Armand,48.845515089794,2.3726498446286
466,82423726,17,48,2,Gare de Lyon - Roland Barthes,48.84395729494058,2.3790882155299187
925,291354793,39,9,1,Gare de Lyon - Van Gogh,48.843839785643,2.3704450240357
1001,457713145,37,6,0,Gare de Nanterre Ville,48.8950295,2.1957932
851,214114469,3,17,10,Gare de Nogent-le-Perreux,48.83842553348809,2.493693307042122
705,129091653,18,6,9,Gare de Pont-Cardinet,48.88713901475306,2.314494143994255
52,77773,17,4,6,Gare de Reuilly - Picpus,48.84267354116789,2.3972943797707558
1170,653166892,8,7,13,Gare de Robinson,48.7799259211605,2.281828634440899
457,82402482,19,18,14,Gare de l'Est - Chateau Landon,48.879305,2.362424
961,369644630,28,1,1,Gare de l'Est - Faubourg-Saint-Martin,48.875642647477,2.3594588041306
771,210584503,12,0,2,Gare de l'Est - Fidélité,48.874575,2.356796
1016,476183970,35,3,1,Gare de l'Est - Place du 11 Novembre 1918,48.876327,2.3585464
684,129036192,7,3,2,Gare de l'Est - Verdun,48.87615605427147,2.360914908320552
1183,653205656,21,2,3,Gare de la Garenne-Colombes,48.909752,2.239145
1165,653153519,8,2,9,Gare des Vallées,48.913179,2.257726
1105,653065577,20,8,0,Gare du Nord - Demarquay,48.881154,2.358411
1068,594942659,19,1,0,Gare du Nord - Denain,48.879595787608096,2.3544725775718693
34,37647,23,0,2,Gare du Nord - Dunkerque,48.88042350842878,2.3527636751532555
298,54000556,23,1,0,Gare du Nord - Faubourg Saint-Denis,48.879612765503616,2.3568402975797653
776,210740080,36,7,4,Gare du Nord - Hôpital Lariboisière,48.881949,2.352339
1309,1063984816,13,4,1,Gare du Nord - La Chapelle,48.884178287286,2.3561057075858
1103,653062048,21,0,1,Gare du Nord - Place de Valenciennes,48.879089,2.354235
6,6298,20,0,1,Gare du Nord - Saint-Vincent de Paul,48.880955741648,2.3524305148385
1329,1314450240,2,8,6,Gare du Stade,48.9312676,2.2603778
1383,11004720021,2,12,12,Garibaldi - Gabriel Péri,48.905741911394,2.3316044208059
963,376664868,17,3,7,Gaston Roussel - Commune de Paris,48.89432034553156,2.432552274419542
993,443198808,32,4,1,Gaston Tessier - Rosa Parks RER,48.8963765,2.3743692
16,7254,20,0,2,Gay Lussac - Saint-Jacques,48.844730256132095,2.341923944866407
301,54000560,12,2,2,Geoffroy - Marie,48.873781940593325,2.344513876337893
55,11580442,4,11,2,Geoffroy-Saint-Hilaire - Saint-Marcel,48.83907826424974,2.356877340669728
67,15163771,13,11,4,George Sand - Jean de La Fontaine,48.84986918764119,2.268257387525699
1052,559980654,21,0,1,George V - Christophe Colomb,48.87046,2.30104
1402,11908488283,6,17,2,Georges Pompidou - Verdun,48.875481,2.232443
369,60667075,20,0,0,Georges V - François 1er,48.87034,2.30082
152,27415194,15,5,16,Gergovie - Alésia,48.83088717455243,2.318882101207347
1228,1056995858,16,10,3,Gergovie - Vercingétorix,48.83453413883994,2.313154547426182
1327,1227051850,24,9,7,Glacière - Soeur Catherine Marie,48.829522989420596,2.343570403754711
507,84960402,9,23,3,Gobelins - Port-Royal,48.83713590026284,2.3515201359987254
30,36391,18,0,1,Godot de Mauroy - Madeleine,48.869789,2.326347
8,6354,23,7,2,Gouthière - Poterne des Peupliers,48.820507,2.351342
211,39151458,6,2,12,Goutte d'or - Barbès,48.88512432362698,2.349696233868599
779,210746090,29,17,3,Grand Prieuré - Crussol,48.864660627935,2.3692265531829
740,207633746,42,9,0,Grande Armée - Brunel,48.876116,2.288124
1299,1063027377,21,1,1,Grande Rue - Europe,48.8218104687602,2.205879874527455
865,220504949,25,2,0,Grande Truanderie - Saint-Denis,48.8626302,2.3498075
45,52393,43,1,3,Grands Moulins de Pantin,48.89738369720229,2.3959985375404362
305,54000565,18,2,6,Granges aux Belles,48.8761373390584,2.3680844979417
686,129042700,47,9,2,Granges aux Belles - Hôpital Saint-Louis,48.874794994841274,2.366669436984963
781,210748575,30,13,7,Gravelle - Route du Bac,48.824407,2.418455
514,85008390,7,58,3,Grenelle - Dr Finlay,48.851315406715976,2.2919502854347233
801,213684750,19,9,7,Grenelle - Violet,48.84993035512154,2.294612042605877
942,335780498,22,5,2,Greneta - Sebastopol,48.865242333228,2.3516669869423
517,85043758,16,16,2,Guersant - Gouvion-Saint-Cyr,48.88287775178599,2.287667370814871
977,406806401,1,23,3,Guichet - Jean Jaurès,48.905169868129036,2.3023840785026555
460,82408364,7,21,10,Guillaume Bertrand - République,48.86382517434147,2.38090637715497
406,66491409,15,4,1,Guillaume Tell - Parc Henri Barbusse,48.88958925894009,2.4198862910270695
1144,653127524,25,4,0,Gustave Eiffel - Parc des Impressionnistes,48.90390619651018,2.2946908324956894
384,66491382,6,17,10,Guy Môquet - Compoint,48.89213559044868,2.32321947813034
192,35447568,15,5,3,Guy Môquet - Etienne Dolet,48.81527009991819,2.298078276995073
1410,12948189248,17,10,2,Guy Môquet - Jean Moulin,48.940931521020836,2.363948999931771
1340,1810975577,25,1,3,Guy Môquet - Parvis Georges Marchais,48.79518840095975,2.35943466424942
957,365181481,1,35,15,Guy Môquet - Saint-Ouen,48.892777719023975,2.3270335793495183
548,100227241,32,2,1,Guynemer - Jardin du Luxembourg,48.8466127,2.3325478
1195,933214552,21,3,2,Guynemer - Séverine,48.83091743371036,2.2790706530213356
1330,1333959209,6,2,10,Génie - Mozart,48.794902381218904,2.3734183609485626
883,235599121,1,9,16,Général De Gaulle - Alouette,48.839109,2.4175664
110,27363156,6,5,11,Général De Gaulle - Vivien,48.83607420090204,2.4189166724681854
620,102724418,17,6,2,Général Leclerc - Bièvre,48.782414428747316,2.3166695237159733
1037,506455295,15,0,0,Général Martial Valin - Pont du Garigliano,48.83823094269141,2.270506024360657
144,27415004,13,21,4,Général Michel Bizot - Claude Decaen,48.83481262982544,2.400927788127704
68,15212034,6,8,4,Gérando - Rochechouart,48.88294340845,2.3464846238494
404,66491407,12,3,6,Haies - Réunion,48.85386896766491,2.402426162238911
1048,549480297,22,0,0,Halle Freyssinet - Parvis Alan Turing,48.832846814471,2.3711421713233
1263,1057730786,19,1,0,Halles - Bourdonnais,48.860448992575,2.3460162431002
109,27363137,0,19,3,Hameau Fleuri - Marché,48.831448892608314,2.2412404417991643
552,100769544,43,2,0,Harpe - Saint-Germain,48.851518815017,2.3436703160405
32,37420,14,1,0,Hauteville - Bonne Nouvelle,48.87077436024043,2.349649636832728
10,6399,30,0,0,Hautpoul - Jean Jaurès,48.886393679436,2.3865414544355
718,129124069,13,2,6,Haxo - Surmelin,48.8694370761222,2.40539657537972
639,124183944,4,47,1,Hector Malot - Daumesnil,48.84693552991762,2.3770876228809357
1392,11437761399,0,14,16,Henri Barbusse - Bourguignons,48.91301722799713,2.2734212270774417
1406,12225158518,15,4,8,Henri Barbusse - Gabriel Péri,48.801773795836,2.2874166362216
1441,16816575934,0,0,0,Henri Barbusse - Marcel Cachin,48.938452457583,2.3718065906479
1002,457813746,2,3,10,Henri Barbusse - Stalingrad,48.814183748660554,2.2872862592339516
1230,1057009034,9,2,16,Henri Chevreau - Couronnes,48.87033205312931,2.388777695596218
1159,653143563,17,3,10,Henri Ravera - Gabriel Péri,48.79722273833844,2.302115857601166
835,213875650,13,8,1,Henri Ste-Claire Déville - Paul Héroult,48.892663,2.172411
592,101753100,16,0,0,Henry Farman,48.83372430280548,2.2713854536414146
260,49094984,35,1,1,Herschel - Observatoire,48.84342376221923,2.3376645147800446
1317,1074333296,30,9,1,Hippodrome Paris-Vincennes,48.82048387758518,2.446271181106568
1352,2515618216,20,9,1,Hippodrome de Longchamp,48.86413226532,2.239905372262
1430,16206691682,30,0,0,Hispano Suiza - Parc des Bruyères,48.915885074177,2.2682306702811
1066,588452142,4,5,11,Hoche - Jean Lolive,48.89110239200789,2.402843534946442
764,210573120,32,0,0,Hoche - Tilsitt,48.874836457837,2.2971323132515
917,278576043,3,5,9,Honoré d'Estienne d'Ovres - Grilles,48.89056394743836,2.4064831843792427
1394,11438049493,30,0,1,Hélène et François Missoffe - Emile Borel,48.89990653843488,2.321543991674844
783,210751059,12,3,0,Hôpital - Campo-Formio,48.835405,2.358218
955,362869414,22,1,2,Hôpital Bégin,48.84571672113014,2.4272462725639348
1046,535500589,61,1,1,Hôpital Européen Georges Pompidou ,48.83769531916335,2.275374233722687
1268,1057765913,34,4,0,Hôpital Necker,48.846043490118454,2.313245013356209
185,35137730,49,0,0,Hôpital Pitié Salpêtrière,48.8377016,2.3604946
826,213695073,28,0,3,Hôpital Robert Debré,48.88005222200894,2.4008650346327003
282,54000539,11,18,3,Hôtel de Ville - Pont-Marie,48.85389964552738,2.356947250664234
1198,977206088,0,14,14,Hôtel de Ville d'Argenteuil,48.946504,2.2496396
1315,1074187051,0,14,14,Hôtel de Ville d'Asnières sur Seine,48.90999330025577,2.288238108158112
523,85147829,22,4,0,Hôtel de Ville de Boulogne Billancourt,48.83495885166784,2.2416803240776066
1213,1025995767,0,8,11,Hôtel de Ville de Champigny sur Marne,48.813810628405,2.5096759200096
1314,1074142878,14,1,5,Hôtel de Ville de Chaville,48.80887149094033,2.188134044408798
930,303452950,24,0,10,Hôtel de Ville de Fontenay-aux-Roses,48.790844603480856,2.2871455930319455
1024,484889494,4,13,6,Hôtel de Ville de Levallois Perret,48.89314451997415,2.2888818383216862
1181,653200142,36,1,1,Hôtel de Ville de Nanterre,48.892371898250424,2.205548956990242
1178,653194214,11,7,2,Hôtel de Ville de Rueil-Malmaison,48.878194,2.181724
1388,11218807773,10,8,22,Hôtel de Ville de Saint-Ouen,48.911380185786,2.3340076807601
1255,1057366813,25,5,1,Hôtel de Ville de Sèvres,48.824363561288756,2.2131047397851944
626,102751453,24,0,1,Hôtel de Ville de Vincennes,48.84827609706963,2.4398955702781677
850,214109662,20,0,0,Hôtel de ville de Fontenay-sous-Bois,48.84949749106274,2.4750164151191716
518,85118872,24,1,12,Indre - Prairies,48.86254398506782,2.403290458023548
4,6296,15,0,1,Institut de France,48.85761567856468,2.335831353037739
659,128882438,36,0,1,Institut du Monde Arabe - Saint-Germain,48.849063299501,2.3558086529374
988,437597018,29,0,0,Invalides - Duroc,48.847792473295,2.3161920905113
990,439750210,23,0,2,Italie - Jardin Joan Miro,48.81990914045756,2.3592948541045193
1349,2515085147,16,1,3,Italie - Tolbiac,48.82557229464416,2.3576171323657036
148,27415128,15,2,3,Ivry - Baudricourt,48.824695995415006,2.363106073577468
978,409364001,13,2,3,Ivry - Simone Weil,48.823283932030755,2.3659095168113713
540,97705710,21,11,5,Jacquard - Ternaux ,48.8646605,2.373162
377,66491370,21,4,1,Jacques Callot - Mazarine,48.85528017533187,2.337574325501919
489,82565383,18,11,11,Jacques Kellner - Saint-Ouen,48.895809485802886,2.327897409164145
123,27363504,19,6,5,Jacquier - Didot,48.82953336292279,2.318179272115231
493,82569809,17,3,1,Jardin Marguerite Long,48.8816985773914,2.2836575657129288
1010,470807791,15,17,1,Jardin d'Acclimatation,48.878772242510465,2.270772233605385
608,102326776,21,1,1,Jardin de l'Hospice Debrousse,48.861451061938,2.405686005949974
254,43247025,6,3,10,Jardins d'Eole,48.8869703,2.3668488
155,27415246,24,16,3,Javel - André Citroën,48.846276485475,2.2786368057131767
542,98132679,38,6,4,Jean Bleuzen - Square du 11 Novembre,48.8232579,2.2965213
121,27363397,15,2,2,Jean Bologne - Passy,48.857566889784465,2.280027395306772
177,34235349,25,2,1,Jean Calvin - Tournefort,48.84158856925782,2.348489575088024
965,378648513,9,18,9,Jean Colly - Tolbiac,48.827817291597846,2.3705490678548813
536,95927849,3,16,4,Jean Jaurès - Jean Baptiste Clément ,48.84576261454011,2.2369650006294255
443,81212212,15,2,6,Jean Jaurès - Jules Jacquemin,48.88433053604843,2.4082902455152104
846,213999554,5,7,8,Jean Jaurès - Ouvrières Pivéreuses,48.91042343752563,2.399576604366303
1371,2705356759,26,0,2,Jean Jaurès - Paul Lafargue,48.884933177666,2.2484488785267
1397,11851012506,1,25,6,Jean Jaurès - Place du Dr Roux,48.927567032796,2.2947337017374
173,27415736,21,0,8,Jean Jaurès - Presles,48.90713441498779,2.396005728053061
207,37952191,17,6,7,Jean Jaurès - Reine,48.84009622558849,2.239872515201569
172,27415665,32,4,7,Jean Jaurès - Salvador Allende,48.821475594736775,2.3026576638221745
886,244400797,17,2,2,Jean Lolive - Parc Stalingrad,48.89206174403158,2.4091735482215886
745,210090269,10,44,9,Jean Macé - Faidherbe,48.85337548425958,2.3828620836138725
1061,583171360,29,0,0,Jean Marin Naudin - Stalingrad,48.805713897355,2.3202023282647
297,54000555,31,1,1,Jean Mermoz - Champs-Elysées,48.869689856852,2.3107324540615
198,37504995,0,25,5,Jean Monnet - Iles,48.823393984057304,2.2497073194874866
1019,478593396,14,0,6,Jean Moulin - Paul Doumer,48.8622179854695,2.45533436536789
584,101491821,33,2,6,Jean Moulin - Place Victor et Hélène Basch,48.82764910241,2.3261967301369
1042,518825709,13,4,2,Jean Oestreicher - Porte de Champerret,48.88655580065981,2.288640439510346
339,54000610,42,19,3,Jean de la Fontaine - Boulainvilliers,48.85264791461651,2.2758664190769196
1176,653190279,3,14,2,Jean-Baptiste Charcot - Sainte-Geneviève,48.90310883721567,2.278892956674099
29,36298,14,1,0,Jean-Baptiste Pigalle - La Bruyere,48.87939826447722,2.333709173337285
333,54000601,9,3,6,Jean-François Lépine - Stephenson,48.88611466796807,2.356855627529275
653,128834707,21,1,0,Jean-Jacques Rousseau - Deux Ecus,48.86297805972131,2.3414635285735126
778,210745258,12,17,16,Jean-Pierre Timbaud - Vaucouleurs,48.867937,2.377885
492,82568336,13,2,11,Jeanne Hornet - Girardot,48.873802681432146,2.427820265293122
196,35642049,6,4,4,Jemmapes - Ecluses Saint-Martin,48.87748519186726,2.3660067468881607
1335,1599921040,12,11,5,Jessaint - Marx Dormoy,48.88484543106364,2.358930408954621
1090,653035822,25,0,1,Jeûneurs - Mulhouse,48.868997,2.346925
1163,653150828,11,2,4,Joffre - Aigle,48.904033,2.245096
703,129088667,8,22,6,Jonquière - Docteur Paul Brousse,48.894799816683985,2.318705212173216
1196,963786819,21,4,5,Jonquoy - Didot,48.82890454823947,2.31648076325655
712,129106450,15,0,19,Joseph Dijon - Ornano,48.89374453351521,2.3476678133010864
588,101743895,30,18,16,Joseph Liouville - Croix Nivert,48.844835471244416,2.297508493065834
537,96512532,16,0,0,Joseph Sansboeuf - Saint Lazare,48.87531563065266,2.3229019716382027
222,39565873,20,4,3,Jouffroy d'Abbans - Malesherbes,48.8850134,2.3070717
328,54000596,25,4,0,Jouffroy d'Abbans - Villiers,48.88421554703737,2.3056533560156827
300,54000559,34,4,0,Jouffroy d'Abbans - Wagram,48.881973298351625,2.301132157444954
167,27415466,14,1,5,Jourdain - Place des Grandes Rigoles,48.87403113727167,2.38959476351738
1292,1062874070,37,0,1,Jourdan - Cité Universitaire,48.819897343156676,2.3397007964124366
1116,653081846,19,1,10,Jourdan - Monticelli,48.822032,2.329095
513,85002689,59,1,0,Jourdan - Stade Charléty,48.819428333369,2.3433353751898
263,49368561,24,29,3,Jules Ferry - Faubourg du Temple Paris,48.868397,2.3678933
1006,462875227,20,3,1,Jules Guesde - Alsace,48.89056627550627,2.295077741146088
1185,653217067,14,0,5,Jules Guesde - Laennec,48.87628983900398,2.5006942078471184
1034,499303158,5,21,4,Jules Guesde - Pont du Port à l'Anglais,48.79628807093802,2.417212128639221
1242,1057210479,0,5,10,Jules Guesdes - Carnot,48.93828169931872,2.3508992046117783
1234,1057072168,10,2,12,Jules Guesdes - Général de Gaulle,48.81930581291959,2.278934195637703
73,15308712,12,5,5,Jules Vallès - Charonne,48.85428437993525,2.384767457842827
286,54000544,35,0,1,Jussieu - Fossés Saint-Bernard,48.84718551002347,2.3534858599305153
1097,653048150,36,0,2,Jussieu - Guy de la Brosse,48.845665,2.355653
1337,1765749389,14,0,2,Karl Marx,48.784527937293184,2.3646667979455587
60,13283986,8,20,3,Keller - La Roquette,48.8555508,2.3752778
614,102336814,12,9,1,Kléber - Gouverneur Général Eboué,48.826885843069796,2.2723413258790965
1297,1063012692,16,0,3,Kléber - National,48.906333898712234,2.2393910586833954
1175,653190196,20,5,12,LCL Campus - Place Oscar Niemeyer,48.805342480621576,2.363983690738678
986,428088564,11,10,3,La Jarry - Place Diderot,48.849726940367326,2.452013790607453
39,38192,29,4,0,La Motte-Picquet - Grenelle,48.84858321339195,2.299347817897797
1033,494183852,36,1,1,La Motte-Picquet - La Tour Maubourg,48.8572316,2.3094136
1224,1056965116,48,1,1,Lac Daumesnil - Saint-Maurice,48.82774555743318,2.4183654785156246
224,39626277,3,8,2,Lacuée - Lyon,48.849268481958,2.3704585433006
508,84961467,49,2,0,Lacépède - Linné,48.8437035476636,2.354651279747486
755,210403080,21,1,0,Lacépède - Monge,48.84389286531899,2.3519663885235786
117,27363323,31,0,0,Laffitte - Italiens,48.871815737396304,2.337201547845077
441,80419347,20,2,3,Lagny - Auguste Blanqui,48.84922568052601,2.4218603968620305
853,214122655,30,0,1,Lagny - Joffre,48.84930687084088,2.417949736118317
623,102747146,14,6,5,Lagny - Victor Basch,48.84884147189881,2.426325418925233
381,66491378,3,49,1,Lakanal - Commerce,48.84442462786544,2.294059172272682
247,42908639,26,2,0,Lallier - Trudaine ,48.88109246617963,2.3408224806189537
1312,1074060095,13,7,8,Lally-Tollendal - Armand Carrel,48.88270066221072,2.374717555940151
302,54000561,26,3,0,Lamartine - Faubourg Montmartre,48.87661398289084,2.339765690267086
859,216039437,25,0,0,Lamennais - Washington ,48.87352990026496,2.303444892168045
1130,653102462,0,33,9,Lampes,48.81152481985875,2.4017931148409843
137,27414713,20,6,1,Landy - Heurtault,48.915096534520316,2.375951372087002
615,102338493,9,9,10,Larmeroux - Baudelaire,48.816939911292,2.2809894804846
763,210570888,20,1,0,Las Cases - Bourgogne,48.85909110474066,2.3185685276985173
894,255207155,18,0,2,Lassus - Delouvain,48.87550448459959,2.3890327325518528
338,54000609,7,19,6,Laumière - Petit,48.88467368538326,2.380039058625698
805,213686196,16,2,1,Lauriston - Copernic,48.86926,2.289918
1207,1002738770,21,0,1,Lavandieres Sainte Opportune - Rivoli,48.859279702476,2.3466217517853
637,124167835,5,1,12,Lavoisier - Missak Manouchian,48.86286468896063,2.495676465332508
56,13105968,19,0,2,Le Brix et Mesmin - Jourdan,48.82234096593411,2.327861653302471
398,66491398,26,19,3,Le Brun - Gobelins,48.835092787823875,2.353468135133752
524,85152599,36,6,4,Le Corbusier - Jean Jaurès,48.83780830557548,2.2408381104469304
191,35380305,32,2,1,Le Goff - Gay-Lussac,48.8461024009786,2.3412207886576653
46,52453,20,2,3,Le Vau - Maurice Bertaux,48.86803439043193,2.411030612453627
1156,653139897,14,2,10,Lebrun - Colonel Fabien ,48.78266870733145,2.381317801773548
594,101759167,2,39,4,Lecourbe - Convention,48.83923319241899,2.2915197908878326
798,213683101,0,15,3,Lecourbe - Jean Maridor,48.83796366147599,2.2877392172813416
984,426772876,5,24,1,Ledru-Rollin - Charonne,48.85345855607243,2.3772463581947094
458,82404497,2,33,1,Ledru-Rollin - Place du Père Chaillet,48.856433706943704,2.379020587761426
702,129087587,10,24,2,Legendre - Clichy,48.88896161855884,2.322528975094376
274,50156117,17,1,3,Legendre - Dulong,48.885325169402904,2.316423766314984
272,49829553,12,10,6,Legendre - Nollet,48.887742186754224,2.320293079881375
383,66491381,11,14,5,Leibniz - Jean Dollfus,48.896328348515986,2.333390423834684
331,54000599,8,10,6,Lemercier - Cardinet,48.890097168851746,2.317377626895905
821,213692714,22,0,2,Lepic - Armée d'Orient,48.88753640381415,2.334307730197907
647,125811629,21,7,16,Leredde - Tolbiac,48.82887629664,2.3744382709265
1169,653165196,14,9,2,Les Blagis,48.785205,2.302526
932,311153993,30,1,0,Les Halles - Saint-Eustache,48.86362695901683,2.342623919248581
1217,1036199130,4,8,8,Les Juilliottes,48.8043072,2.4437362
1204,990000217,2,9,5,Les Planètes ,48.8099849920804,2.4580853059887886
187,35149611,7,2,5,Liard - Amiral Mouchez,48.8214169,2.342167
1191,907054879,4,13,3,Liberté - Vert-de-Maisons,48.79014780960843,2.43286281824112
1190,875078767,13,0,7,Lieutenant Chauré - Etienne Marey,48.86746195408435,2.405970990657807
453,82379648,30,0,1,Lisbonne - Monceau,48.87745567681383,2.309694221419506
243,42603855,16,0,0,Liège - Moscou,48.8795431,2.3264628
543,98187918,50,1,3,Lobau - Hôtel de Ville,48.8562118,2.3532536
564,100905057,20,0,1,Londres - Amsterdam,48.878034461503965,2.326483540969424
768,210582231,24,1,0,Londres - Place d'Estienne d'Orves,48.876693805756986,2.3305362090468407
325,54000593,34,2,1,Longchamp - Place d'Iéna,48.86491723343388,2.2926748171448708
437,80077998,6,2,9,Lorraine - Jean Jaurès,48.8863865,2.3825772
645,125542925,21,10,6,Louis Blanc - Aqueduc,48.88203018259946,2.3635615780949593
104,27362949,20,5,5,Louis Blanc - Jemmapes,48.879330755297346,2.368448562920093
139,27414902,14,4,3,Louis Blanc - La Chapelle,48.884008964514,2.3599335551262
166,27415444,24,1,4,Louis Ganne - Davout,48.86338720692607,2.409725748002529
1148,653132534,21,0,4,Louis Lejeune - Barbès,48.81807418981508,2.3267009854316716
888,245187072,17,0,2,Louis Lumière - Porte de Bagnolet,48.86431136000005,2.4105210229754443
49,52518,20,1,1,Louis Lumière.,48.86216198070008,2.41112578185621
618,102343591,25,1,4,Louis Pasteur - Albert Petit,48.796261,2.317289
1150,653134004,20,2,4,Louis Rolland - République,48.81710889740748,2.3193106434955717
1120,653086121,21,4,9,Louis Xavier de Ricard - Ancienne Mairie,48.84629899065091,2.472420372068882
372,66489651,31,1,0,Louis le Grand - Italiens,48.870508937203915,2.334054461939329
598,102289046,0,17,3,Lourmel - Marie Skobtsov,48.844974,2.287283
1070,596872103,24,1,4,Lucie Aubrac - Fort,48.818144834008976,2.271184623241425
1080,632007124,34,0,1,Lucie Aubrac - Franklin,48.86223916006812,2.4435862898826604
1117,653083263,38,0,0,Lucien Bossoutrot - Général Martial Vallin,48.836956046311,2.2741072252393
1162,653147618,0,13,12,Lucien Lanternier - Le Luth,48.93159430558871,2.2889783978462224
985,427678168,36,3,5,Lucien Sampaix - Récollets,48.874330377560476,2.3621229082345963
709,129096696,4,0,7,Léon - Doudeauville,48.88832421845225,2.353573372638597
568,100921894,4,9,4,Léon Frot - Charonne,48.854963800335234,2.387217085372007
379,66491372,52,6,2,M.- A. Lagroua Weill-Hallé -  F. Dolto,48.828595283857425,2.380220606266108
330,54000598,25,0,0,Mac-Mahon - Brey,48.877532084130166,2.294512536052928
827,213699079,67,0,0,Macdonald - Césaria Evora,48.89883,2.37933
572,100934967,6,12,15,Madagascar - Meuniers,48.83460464474706,2.3970650508999825
352,54000626,15,1,4,Madame de Sanzillon - Mozart,48.90379820774301,2.3187401890754704
356,54000630,6,16,2,Madeleine Michelis - Roule,48.88260431301364,2.2773634269833565
1363,2515855808,32,0,0,Madeleine Vionnet,48.902519074064,2.3740895837545
1334,1599896463,9,5,4,Magenta - Chabrol,48.876495350882045,2.3560990020632744
869,221038698,21,3,0,Mahatma Gandhi,48.876356,2.264205
128,27369223,14,0,3,Maine - Antoine Bourdelle,48.84308531746595,2.320263946784738
471,82440673,48,1,1,Maine - Jean Zay,48.837925263897674,2.3225428909063344
126,27364642,19,6,2,Maine - Liancourt,48.835064363954,2.323731449973991
498,82574198,22,15,3,Mairie d'Issy,48.8237677924683,2.27231115102768
532,94250567,2,46,3,Mairie d'Ivry-sur-Seine,48.81057120969284,2.3842826485633855
627,102752610,8,2,14,Mairie de Bagnolet,48.868421318555306,2.417958788573742
1153,653137566,17,0,14,Mairie de Clamart,48.800612,2.262151
435,78348185,0,38,11,Mairie de Clichy,48.903653634661,2.3059353232384
1298,1063017616,18,2,2,Mairie de La Garenne Colombes,48.90663823468682,2.24679596722126
1188,818302209,49,2,0,Mairie de Montreuil,48.86131452758348,2.440614402294159
983,422639331,29,0,2,Mairie de Neuilly sur Seine,48.88494728765838,2.2677031159400944
735,135806005,3,3,11,Mairie de Romainville,48.885109,2.435679
1186,653222953,19,1,7,Mairie de Rosny-sous-Bois,48.871256519012,2.4865807592869
980,417623119,11,0,9,Mairie de quartier du Plateau - Mont-Valérien,48.8799933,2.2072437
962,376526598,45,0,1,Mairie des Lilas,48.8792834,2.4160182
456,82396562,5,11,1,Mairie du 10ème,48.872089449907,2.3575825989246
216,39254792,2,45,3,Mairie du 11ème,48.858925,2.3789759
199,37815204,0,22,8,Mairie du 12ème,48.840855311763,2.3875549435616
319,54000587,26,0,5,Mairie du 14ème,48.83254578123,2.3254923149943
233,41523981,0,27,5,Mairie du 15ème,48.8417762,2.2986539
195,35600927,27,2,5,Mairie du 16ème,48.863936848471994,2.2765953093767166
335,54000605,24,4,8,Mairie du 18ème,48.892939296937605,2.3445510864257812
363,54001190,5,4,17,Mairie du 19ème,48.88256264247959,2.3812624812126164
349,54000623,9,0,15,Mairie du 20ème,48.865302324275,2.3990669846535
1,6293,26,0,1,Mairie du 2ème,48.8672190355135,2.3404625437747044
281,54000538,10,15,3,Mairie du 3ème,48.86446178139141,2.361762821674347
551,100767550,25,14,0,Mairie du 4ème,48.85594991049653,2.3563823103904724
444,82253759,23,3,0,Mairie du 7ème,48.8577967,2.3192664
268,49498164,13,1,0,Mairie du 8ème ,48.877932,2.318264
23,30550,19,0,1,Mairie du 9ème,48.87326713758289,2.340753448052758
440,80298493,22,1,2,Mairie du Kremlin-Bicêtre,48.81191981537702,2.3570189997553825
81,15397468,27,15,4,Maison de Radio - France,48.85132886434057,2.277785539627075
931,308082350,13,1,1,Malakoff - Place de la Porte Maillot,48.876733496637506,2.2834577411413193
937,315022587,62,1,2,Malesherbes - Place de la Madeleine,48.87040602848252,2.323243509807989
606,102323152,3,7,10,Manin - Carrières d'Amérique,48.88467214209463,2.3919698596000676
182,35089539,0,8,13,Manin - Crimée,48.8831217743719,2.3863670602440834
643,125370566,2,1,15,Manin - Secrétan,48.8791665,2.3787959
340,54000611,18,1,3,Manin - Simon Bolivar,48.87649965412676,2.379407362599104
1140,653122771,3,16,4,Marc Sangnier - Division Leclerc,48.78599652305309,2.329955510795116
127,27364743,19,0,2,Marc Sangnier - Porte de Vanves,48.825218683556734,2.3107116669416428
400,66491402,26,2,6,Marcadet - Barbès,48.89045112096476,2.349057392968696
649,125918662,15,0,6,Marcadet - Ramey,48.890875,2.3449019
669,128940135,16,2,2,Marceau - Chaillot,48.86883394989261,2.2989967837929726
174,28233012,25,3,1,Marceau - Président Wilson,48.8652359,2.3002513
1393,11437961617,0,16,9,Marceau Delorme - Pierre Brossolette,48.91206062860357,2.295897423568745
1417,14623073464,41,4,0,Marcel Monge - Marcel Dassault,48.86096384533371,2.2246733296048142
1179,653197206,17,2,5,Marcel Pourtout - Édouard Manet ,48.87555620763429,2.1655967831611638
725,129142199,19,3,8,Marcel Yol - Jullien,48.82537611802588,2.287235018058929
610,102329800,6,14,7,Marcelin Berthelot,48.8415473058801,2.233161628246308
1007,463297497,18,0,0,Marcelle - Thalie,48.8835462,2.4137883
1221,1056715831,21,0,0,Marché Saint-Germain,48.85165625855281,2.335500307381153
75,15309045,13,1,1,Marché Saint-Quentin,48.877356057652264,2.354511445637388
370,63498079,17,3,6,Marché Secrétan,48.88125496379482,2.373463287949562
2,6294,16,1,0,Marché aux fleurs,48.85525811539143,2.3473754525184636
483,82551956,24,6,1,Marché d'Auteuil,48.84842761367387,2.265253821160005
1270,1057774603,26,1,5,Marie-Georges Picquart - Pereire,48.88863669349711,2.3111706599593163
295,54000553,33,0,0,Marignan - Champs-Elysées,48.869495661232,2.3066138139003
1122,653087914,1,18,7,Marne - Charles de Gaulle,48.815071719544434,2.4121668934822087
1064,586539770,14,1,7,Marne - Germain Dardan,48.81154270401601,2.303070724010468
682,129032910,19,31,3,Marseille - Beaurepaire,48.871624306962985,2.3639265082738348
1422,15550433574,27,6,3,Martyrs de Châteaubriant - Jean Grandel,48.951432,2.211214
1166,653155159,15,2,4,Marx Dormoy - Château Sainte-Barbe,48.791782341055324,2.297856844961643
1118,653083675,17,1,1,Maréchal Joffre - Verdun,48.85385,2.470307
1428,16134083337,29,0,1,Maréchal Leclerc de Hauteclocque - Marché Buzenval,48.858446,2.192077
434,78124875,32,9,8,Mathis - Flandre,48.8906429898976,2.3762554675340652
885,237624030,35,0,1,Mathurins - Auber,48.872988840744,2.3294984212276
1313,1074095810,15,0,6,Maurice Payret-Dortail,48.87811957063342,2.2233625128865246
1328,1237624420,29,0,1,Maurice d'Ocagne - General Maudhuy,48.82414282524159,2.3158789426088333
1279,1062256852,14,1,5,Maxime Gorki - Louis Aragon,48.78909814728443,2.368387877941132
1177,653193536,14,0,6,Maxime Gorki - Paul Vaillant-Couturier,48.79673508795443,2.3683342337608337
775,210738704,20,0,1,Mazagran - Bonne Nouvelle,48.870047123655254,2.351124845445156
1112,653079135,5,5,5,Mazagran - Pierre de Coubertin,48.816218640260445,2.344226874411106
907,266052390,5,15,6,Melun - Jean Jaurès,48.8837796723475,2.376477420330048
631,120827885,9,0,1,Messine - Place Du Pérou,48.875448033960744,2.315508019010038
867,221032834,40,4,1,Metz - Faubourg Saint-Denis,48.870893,2.353521
648,125881065,23,2,6,Metz - Marne,48.891163,2.3865705
159,27415302,14,10,1,Michel-Ange - Parent de Rosan,48.840579923690115,2.2584119439125065
875,224589573,14,1,1,Michelet - Assas,48.84274150283194,2.335021197795868
1100,653055097,19,3,0,Milton - Manuel,48.878249,2.341181
241,42566291,28,3,1,Miromesnil - La Boétie,48.87372241291653,2.315848097205162
808,213687140,14,14,6,Molitor - Chardon-Lagache,48.84520880183234,2.2656840831041336
516,85031184,44,7,0,Molitor - Michel-Ange,48.845182081538034,2.26211277356597
927,301841024,4,4,21,Molière - République,48.81111581390707,2.3145738624448158
244,42720305,35,2,0,Monceau - Malesherbes ,48.8795079,2.3145456
677,129021753,16,0,0,Moncey - Blanche,48.88006587474148,2.3310810327529907
998,452920451,22,0,0,Mont Valérien - Michel Salles,48.8561915,2.2152966
143,27414945,2,11,1,Montgallet - Charenton,48.842647778701,2.3861649278137
939,323486248,6,7,3,Montgallet - Reuilly,48.844291,2.3896481
549,100759356,15,0,0,Montmartre - Etienne Marcel,48.865021945810085,2.345068440144759
376,66491369,46,0,1,Montparnasse -  Square Ozanam,48.843310567822,2.3265242949128
1035,501318622,1,18,2,Montreuil - Gonnet,48.850500564921,2.3890856287864
624,102748267,21,4,0,Montreuil - République,48.85026349463687,2.4345204234123234
306,54000567,24,3,6,Montreuil - Voltaire,48.850507011842,2.3930755582745
722,129134084,4,14,7,Morice - Général Leclerc,48.90245471981591,2.3128929734230046
797,213682736,39,8,4,Morillons - Dantzig,48.83310149953933,2.299380004405976
1220,1055553396,1,11,2,Mornay - Sully,48.84970399548416,2.364460788667202
1431,16206842336,6,5,16,Moscou - Edouard Vaillant,48.90755810177,2.4689837335263
470,82436057,15,1,5,Moulin de la Pointe,48.82092946051445,2.3563179373741145
693,129067920,36,0,1,Mouton Duvernet - Général Leclerc,48.831632518292565,2.3293121159076686
80,15387809,54,5,2,Mozart - Jasmin,48.85286124871689,2.268483570651513
1353,2515636592,11,5,1,Mstislav Rostropovitch - Berthier,48.892120821173975,2.309234105050564
736,201923447,25,13,0,Murat - Porte de Saint-Cloud,48.83750862621299,2.2577651962637906
559,100863462,61,1,1,Musée d'Orsay,48.85972615790874,2.325860448181629
200,37815993,30,4,0,Mutualité,48.848225572724,2.3502873256803
83,15409531,15,1,0,Méchain - Faubourg Saint-Jacques,48.83586772099485,2.33798034198275
461,82413301,8,9,21,Ménilmontant - Oberkampf,48.866617658681,2.3830134404158
716,129119449,9,0,10,Ménilmontant - Pelleport,48.87068263384462,2.398959602331646
347,54000621,25,8,22,Ménilmontant - Père Lachaise,48.863287291502,2.3869940266013
866,220726050,52,0,2,Mézières - Rennes ,48.85023459321703,2.3303819820284843
1357,2515701705,5,0,14,Mûriers - Père Lachaise,48.864130509668044,2.39164982067019
1367,2515976231,4,11,4,Nanterre - Université,48.901365,2.212693
509,84966359,24,1,0,Naples - Rome,48.879960700846226,2.321358695626259
150,27415169,18,3,2,Nationale - Marcel Duchamp,48.82463749337136,2.3678014799952507
721,129132870,10,10,3,Nationale - Place Jules Guesde,48.82753962462998,2.2416052222251897
66,15153595,23,0,9,Nationale - Vincent Auriol,48.83252708397293,2.362354410392119
327,54000595,18,5,13,Navier - Epinettes,48.89587780769155,2.3226776719093327
1146,653129435,6,1,6,Neuilly - Petit,48.898965361341254,2.29627937078476
1209,1020700136,10,5,1,Neuve Saint-Pierre - Beautreillis,48.85355351439652,2.3639122769236565
1212,1023083417,14,1,0,Ney - Charles Hermite,48.89874803977525,2.3645754531025887
1038,507934805,22,0,2,Ney - Porte de Clignancourt ,48.8978867,2.3458001
1025,486750405,17,1,5,Ney - Porte de Montmartre,48.897918,2.3364872
1286,1062802530,13,6,4,Niger - Soult,48.84369906369085,2.410361237220498
840,213945171,13,0,9,Noisy le Sec - Jean-Baptiste Clément,48.87451538963655,2.415283620357514
135,27414578,18,0,1,Notre-Dame-des-Champs - Stanislas,48.84479928858768,2.329337755887181
1379,10647548670,12,2,8,Nungesser - Santé,48.852335,2.448967
232,41498023,16,5,2,Oberkampf - République,48.865316087070475,2.3761147849099955
877,230873471,17,1,3,Octave Feuillet - Albéric Magnard,48.86106902949534,2.2730283066630363
664,128915891,14,13,1,Octave Gréard - Tour Eiffel,48.856502977696,2.2931787543289
253,43219958,39,0,0,Odessa - Départ,48.842885590081,2.3244281485677
1011,471094898,2,7,13,Olivier de Serres - Leriche,48.83460221715206,2.2957482933998112
580,101022698,31,3,2,Olympiades,48.826764665199,2.3650860786438
916,276989966,11,1,1,Oratoire - Rivoli,48.861342760889,2.3400047421455
334,54000604,18,11,5,Ordener - Poissonniers,48.891213890844654,2.351288666219873
168,27415469,13,6,4,Orteaux - Mouraud,48.85558642847872,2.408762907764669
63,13497763,18,1,2,Ouest - Château ,48.83617286014242,2.319392143923804
1433,16210512714,20,3,2,Pablo Picasso - Maurice Thorez,48.906887812943,2.4489325365198
1133,653107480,19,2,1,Paganini - Davout,48.85135,2.412021
1172,653180903,8,9,13,Paix - Verdun,48.900504,2.261173
442,81081358,10,14,14,Pajol - Place Herbert,48.8927825,2.3635598
217,39256416,31,8,6,Pajol - Riquet ,48.88960028134536,2.3628534749150276
899,259977414,3,17,1,Palais des Sports,48.833468517426,2.2858720645308
754,210399835,37,1,0,Panthéon - Valette,48.84702057165222,2.3464982619671075
304,54000564,28,2,0,Paradis - Hauteville,48.874999954666755,2.3522757401923404
287,54000545,1,57,3,Parc André Citroën,48.840639944296655,2.2780618071556096
1343,1987547083,24,5,1,Parc Départemental des Hautes-Bruyères,48.793457901398945,2.3509012162685394
734,131908132,9,4,2,Parc Eli Lotar,48.91844993053703,2.3727085813879967
1320,1074352578,22,2,1,Parc Floral du Bel Air,48.839285711865735,2.438560165464878
696,129078200,2,15,10,Parc Georges Brassens - Brancion,48.83227829269761,2.3022570088505745
88,15461933,15,0,0,Parc Monceau,48.88107791412864,2.3095492646098137
1182,653203262,1,12,13,Parc Pierre Lagravère,48.92650488131725,2.239069678491417
170,27415512,15,10,9,Parc Roger Salengro,48.905303858642,2.31055945158
804,213685863,50,1,0,Parc Suzanne Lenglen,48.833250690537874,2.2765403240919113
417,74620630,3,4,18,Parc de Belleville - Julien Lacroix,48.8703459,2.3842214
125,27364581,19,4,1,Parc de Choisy,48.828156251575,2.3585135329033
1218,1036226943,25,1,3,Parc de Sceaux - Centre-Ville,48.7769529826096,2.2957214713096623
1411,12959947458,13,0,10,Parc des Pierrettes,48.7973062,2.2909969
728,129145892,23,5,19,Paris - Désiré Préaux,48.85742876694898,2.4323049187660217
727,129144878,23,0,6,Paris - Emile Zola,48.854898095789295,2.4186685681343083
960,369011098,15,5,1,Paris - Laitières,48.84630274151258,2.4207553267478947
678,129023855,21,1,1,Parme - Clichy,48.88126642422664,2.328197093450571
361,54001024,36,7,7,Parmentier - Abel Rabaud,48.86921273836114,2.371688821240712
566,100910836,18,24,4,Parmentier - Fontaine au Roi,48.86787670551736,2.372705978671471
392,66491392,23,15,3,Parmentier - Hôpital Saint-Louis,48.87137987425661,2.369896383666685
539,97677210,26,17,5,Parmentier - République ,48.8644954,2.3750124
832,213848056,8,38,3,Parvis Corentin Celton,48.82747252522725,2.2784319519996648
1300,1063035479,15,1,8,Parvis Robert Schuman - Roger Salengro,48.812657470558754,2.1921751275658607
447,82334007,34,10,2,Pascal - Claude Bernard,48.839061952159746,2.3499782010912895
197,35816213,27,2,4,Passy - Place du Costa Rica,48.8584893,2.2839655
219,39311270,27,1,5,Pasteur - Cotentin,48.8389284,2.316356
1365,2515907297,16,3,0,Pasteur - Gambetta,48.84572797384512,2.4236011505126953
265,49423507,50,0,1,Pau Casals - Neuve Tolbiac,48.8311602,2.3774395
694,129069108,13,21,4,Paul Barruel - Vaugirard,48.84014918546239,2.3044332861900334
203,37879071,18,9,3,Paul Bodin - Clichy,48.89239614618928,2.317142598330975
86,15414455,30,3,1,Paul Doumer - La Tour,48.860116109626574,2.280840481911055
848,214097180,6,8,10,Paul Doumer - Stalingrad,48.806518992199,2.3368880152702
924,287096529,41,2,0,Paul Klee - Place Augusta Holmes,48.838946417408025,2.3704235663952966
1239,1057184567,15,1,19,Paul Signac - Aristide Briand,48.86950262156371,2.4502260982990265
1054,568135465,33,1,2,Paul Vaillant Couturier - Chaptal,48.89347957618252,2.277525365352631
1152,653135400,0,16,8,Paul Vaillant-Couturier - Gare RER,48.80108159069614,2.402097210288048
358,54000632,21,6,4,Paul Vaillant-Couturier - Victor Hugo,48.89819702263572,2.293848017974069
78,15377776,35,0,0,Paul Valery - Victor Hugo,48.87137406080164,2.2887128591537476
519,85120104,6,2,7,Pelleport - Belgrand,48.86500081847653,2.403980836377493
642,124622630,16,20,1,Pelée - Alphonse Baudin,48.8600265,2.3710541
599,102304517,40,3,3,Pereire - Place de Wagram,48.887070607581215,2.304111124531457
650,126050442,14,6,1,Pereire - Rennequin,48.88364782887555,2.2952447086572647
421,74858883,19,6,6,Pereire - Saussure,48.88822907547811,2.310129627585411
256,43255030,38,4,3,Pereire - Ternes,48.87973954830735,2.288012132048607
515,85015750,36,1,1,Pergolèse - Malakoff,48.87521088779225,2.2842781618237495
91,15463487,24,1,1,Pergolèse - Marbeau,48.87356870686902,2.281512522529856
992,443153677,17,10,5,Perle - Vieille du Temple,48.8601346,2.3611206
318,54000586,32,0,0,Pernety - Raymond Losserand,48.834254627953,2.317609339387
1424,16043228469,28,0,0,Perrault - Place du Louvre,48.860273568996,2.3412468419093
1368,2515995748,22,0,0,Pesaro - Préfecture,48.89577046284005,2.223908342421055
1355,2515672078,7,4,10,Petit - Georges Thill,48.88603131999171,2.3895753175020222
9,6385,17,1,4,Petit - Manin,48.88650687534334,2.3938155401308374
238,42499285,35,3,2,Petit Palais,48.8667692,2.3157655
33,37521,16,0,0,Petites Ecuries - Faubourg Poissonnière,48.87397217237368,2.348388757504776
101,27313492,23,2,1,Petites Ecuries - Faubourg Saint-Denis,48.87287120589831,2.3542150855064397
646,125623876,16,2,1,Phalsbourg - Villiers,48.88242307900951,2.3090453445911407
307,54000568,37,5,5,Philippe-Auguste,48.851853488265,2.3932945355773
719,129125489,10,0,11,Piat - Parc de Belleville,48.87195626635528,2.384981390278095
690,129059516,22,13,8,Picpus - Louis Braille,48.839988788912,2.4005256685521
201,37848502,2,9,13,Pierre Brossolette - 12 Février 1934,48.8176962416867,2.3076123744249344
905,265266148,1,8,14,Pierre Brossolette - Adolphe Pinard,48.82177227954821,2.313155829906464
420,74805344,29,0,0,Pierre Charron - Champs-Elysées,48.870103359864,2.3043501377106
209,38319086,20,4,6,Pierre Demours - Laugier,48.8813072,2.294846
93,27033125,10,3,2,Pierre Ginier - Clichy,48.8867667,2.326228
720,129130397,1,16,2,Pierre Grenier - Pont de Billancourt,48.8258020742942,2.2487989068031315
380,66491373,3,10,6,Pierre Joseph Desault,48.82110230800372,2.378775402903557
1372,2820744873,21,5,4,Pierre Larousse - Raymond Losserand,48.83059564231877,2.3119183257222176
1141,653123610,23,10,1,Pierre Lefaucheux - Traversière,48.82435208303827,2.2417913004755974
186,35147530,9,9,3,Pierre Levée - Fontaine Timbaud,48.86632723374305,2.3711163550615306
378,66491371,30,0,1,Pierre Sarrazin - Saint-Michel,48.85090814639774,2.3421307280659676
872,221047138,14,0,4,Pierre et Marie Curie - Julien Grimau,48.870714014863225,2.424097023904324
533,94555589,16,5,5,Pierre et Marie Curie - Maurice Thorez,48.81580226360801,2.376804985105991
726,129143598,23,3,1,Pierret - Madrid,48.882976576876565,2.260125767248034
780,210747224,45,2,0,Pirogues de Bercy - Libourne,48.832308,2.38637
789,213676825,49,0,0,Pitié-Salpêtrière,48.83748810318667,2.365213818848133
893,254224239,0,46,15,Place Adolphe Cherioux - Vaugirard,48.83959442800459,2.3010657727718353
1254,1057360420,26,0,1,Place Aimé Césaire,48.783194713067815,2.2429127991199493
112,27363187,32,3,8,Place Albert Kahn,48.8957969797804,2.345585584134864
873,221094844,20,2,0,Place Alphonse Deville,48.850188262662,2.3275961726904
1375,3906215030,30,0,7,Place Amédée Gordini - Lefebvre,48.83061737745,2.2920634208276
746,210328645,19,0,0,Place André Malraux,48.863925158727,2.3356226831675
385,66491384,1,6,26,Place Aristide Briand,48.82189236575831,2.413003742694855
179,34742973,17,3,3,Place Balard,48.836395736424,2.2784192115068
861,217235307,5,12,8,Place Carnot,48.85593932186797,2.441531717777252
953,357491025,21,0,1,Place Centrale,48.78740167690531,2.2278830409049992
180,34836174,24,2,4,Place Charles Digeon,48.84354203133597,2.418427169322968
1266,1057753858,7,25,3,Place Charles Michels,48.846401,2.28502
968,384370499,0,19,7,Place Charles Vallin,48.835523812041,2.3025986552238
1396,11438171152,21,0,3,Place Charles de Gaulle,48.82654572004,2.1892588736088
609,102328355,0,15,4,Place Denfert-Rochereau,48.843252536286684,2.245987951755524
900,261987383,16,2,8,Place Du Général De Gaulle,48.8687591,2.4329931
908,266422568,22,1,0,Place Edmond Michelet,48.860134890542,2.3500636965036
590,101748685,0,39,0,Place Etienne Pernet,48.84243457133779,2.2921819612383847
1137,653114443,2,10,6,Place Eustache Deschamps,48.793855,2.336637
477,82458977,8,8,6,Place Falguière,48.83629973941847,2.3104464635252953
976,404947652,7,25,0,Place Fernand Forest,48.849269143835926,2.2818631678819656
1214,1034242363,31,0,1,Place François Mitterand,48.86492782016328,2.442958317697048
671,128989986,24,1,2,Place Georges Guillaumin,48.874750203956566,2.301771435325988
1264,1057737444,15,30,2,Place Ginette Hamelin,48.837853,2.382064
1409,12943772652,19,6,4,Place Henri Dunant - Gare RER,48.787543,2.2907628
770,210583589,14,15,1,Place Jacques Bonsergent,48.870948218595146,2.3612049221992497
208,38263504,15,8,2,Place Jacques Madaule,48.823933787309,2.2606918215752
796,213682190,39,2,1,Place Jacques et Thérèse Tréfouël,48.842726498316644,2.3125657439231877
785,210754072,19,9,7,Place Jean Delay,48.823316,2.354336
1050,559507144,20,0,5,Place Jean Ferrat,48.8184945213025,2.3744174838066106
1420,15187848239,1,17,9,Place Jean Mermoz,48.9220937,2.2718348
528,85165045,10,7,5,Place Jean-Baptiste Clément,48.81240466867336,2.3617091774940495
732,129164969,17,22,8,Place Jean-Spire-Lemaître,48.8468428626593,2.452062070369721
786,213674686,17,10,8,Place Jeanne d'Arc,48.829575,2.369126
1283,1062742831,31,7,0,Place Joffre - Frédéric le Play,48.853754486938,2.3044242337346
954,362178041,21,1,5,Place Jules Ferry,48.812107928414775,2.325837314128876
502,82584215,61,0,0,Place Lafayette,48.829654975522,2.2638675570488
819,213691848,30,8,3,Place Madeleine Daniélou,48.883498,2.282015
879,230952057,7,21,3,Place Marcel Cachin,48.81411442356866,2.39090770483017
505,82590367,42,12,2,Place Marcel Sembat,48.83328865030686,2.2441747784614567
1223,1056959071,7,27,5,Place Mireille Havet,48.850533,2.383756
134,27414544,14,3,3,Place Monge,48.842761803051,2.3524079471827
979,417088374,1,26,9,Place Mongolfier,48.815160030060376,2.4592879414558415
1248,1057302263,9,0,8,Place Nationale - Château-des-Rentiers,48.829566,2.365053
1262,1057405802,30,0,0,Place Nelson Mandela,48.897874318180556,2.2182820737361912
1036,501862076,13,4,3,Place Nelson Mandela ,48.862090937689715,2.196576297283173
567,100918666,8,11,0,Place Pasdeloup,48.86265421563133,2.3670325062844237
1128,653097126,3,5,16,Place Paul Delouvrier,48.89197621431365,2.3851288855075836
1085,649888071,1,8,7,Place Paul Eluard,48.7672039733195,2.4144977331161503
897,256403519,16,0,2,Place Pigalle,48.8827555,2.3361566
803,213685514,11,13,0,Place Robert Guillemard,48.836191728066666,2.2811267160086417
544,99798962,22,12,1,Place Saint-André des Arts,48.85288617388103,2.3426544293761253
116,27363277,36,1,0,Place Saint-Ferdinand,48.87815529789739,2.288518047864942
1154,653137567,1,9,10,Place Saint-Just,48.790379518724265,2.3895226791501045
1219,1055541632,0,31,9,Place Tony de Graaff,48.8181645,2.2458109
634,121160813,26,2,0,Place Tristan Bernard,48.8791964,2.2915403
1095,653046029,19,16,2,Place Valhubert,48.844182577315,2.3640366643667
952,357409723,0,25,5,Place Violet,48.84487893836502,2.2905756533145905
1092,653042442,35,1,4,Place aux Étoiles,48.91835629408464,2.3523425683379173
146,27415083,48,1,1,Place d'Italie - Soeur Rosalie,48.831908520394,2.3546943448098
920,284787594,38,1,1,Place d'Italie - Vincent Auriol,48.831481874467,2.3567550292319
481,82550543,5,44,1,Place de Barcelone - Mirabeau,48.847623027364,2.2735664248466
157,27415285,22,2,1,Place de Finlande,48.86240833596654,2.311362437903881
994,443402852,44,0,3,Place de Lévis,48.883546851533254,2.3131933808326726
70,15291968,15,0,0,Place de Passy,48.85780291711202,2.277500546942199
944,336511521,0,3,14,Place de Rhin et Danube,48.88192765861766,2.392586767673493
579,101017160,0,19,13,Place de Rungis,48.82245594764965,2.347382729482953
1202,985828965,2,33,3,Place de Verdun,48.8202823,2.473775
485,82554786,15,1,13,Place de l'Eglise - Pantin,48.892809461520265,2.4124351143836975
1081,632086890,0,22,5,Place de l'Eglise - Vitry-sur-Seine,48.791922819921815,2.395057752728462
1125,653091677,1,13,8,Place de l'Europe - Alfortville,48.78913702405837,2.4284800887107854
1276,1062238429,1,12,2,Place de l'Europe - Quai de Bercy,48.82529858840266,2.3945679143071175
257,48800374,8,1,0,Place de l'Hôtel de Ville,48.8573314,2.351458
183,35101194,2,25,1,Place de l'Insurrection d'Août 1944 ,48.81477852751594,2.398074567317963
828,213699913,3,17,10,Place de l'Édit de Nantes,48.88879,2.3785
967,380891087,14,11,2,Place de la Bastille - Bourdon,48.852364355271,2.3681089282036
1167,653156540,35,0,0,Place de la Division Leclerc,48.793824988636516,2.2731140430551027
730,129152818,10,1,7,Place de la Fraternité,48.85716405838368,2.422847449779511
880,235197110,0,36,7,Place de la Gare,48.80253358011283,2.4275037646293645
1285,1062797394,23,0,0,Place de la Madeleine - Royale,48.869228052648,2.324421107769
176,30641281,2,16,2,Place de la Montagne du Goulet,48.8443415,2.2773844
24,30730,33,1,2,Place de la Nation - Charonne,48.848364667777,2.3997623859813
309,54000570,29,6,1,Place de la Nation - Picpus,48.846821681548,2.4001130461693
418,74635382,43,0,1,Place de la Nation - Taillebourg,48.8488408,2.3973043
1413,13373712848,20,0,3,Place de la Paix - Abbé Saint-Pierre,48.86462724459225,2.2047570338469806
706,129093478,19,2,4,Place de la Porte de Champerret,48.88561741628322,2.290781411279206
1087,652120758,50,3,5,Place de la Porte de Châtillon,48.8242469,2.3186306
1104,653063170,23,7,9,Place de la Porte de Paris,48.93009363207303,2.3564037680625916
807,213686749,34,0,1,Place de la Porte de Passy,48.857341095470794,2.2644165538827115
389,66491389,57,0,0,Place de la Reine Astrid,48.86492098253841,2.302549182385926
991,442739463,4,6,1,Place de la République - Temple,48.867211201859,2.3635464370545
689,129050965,14,2,3,Place de la République - Voltaire,48.866830968942,2.3654810339212
425,75352635,23,1,1,Place de la vache noire,48.81040517059777,2.327060401439667
382,66491379,11,0,0,Place des Abbesses,48.884542726149725,2.3386867716908455
367,58311330,6,8,10,Place des Droits de l'Enfant,48.8274804,2.3319217
1215,1034247348,26,2,5,Place des Larris,48.8568363,2.4780236
482,82550925,26,3,7,Place des Marseillais,48.82663907252554,2.4059280753135686
949,341388492,43,3,0,Place des Ternes.,48.878438631226516,2.297727763652802
546,99886640,21,0,0,Place des Victoires,48.8660354,2.3420333
966,379063990,10,6,4,Place du 14 Juillet,48.8192669595252,2.30119988322258
1401,11874261013,1,11,5,Place du 17 Octobre,48.91962690034779,2.2978286134199792
1108,653072212,3,13,12,Place du 8 mai 1945,48.938882272105374,2.3566243797540665
79,15383032,22,1,2,Place du Canada,48.865346269362675,2.310193787964762
636,123546861,13,4,8,Place du Colonel Fabien,48.87756832086,2.3698791861534
1099,653055049,23,6,3,Place du Cornillon - Stade de France,48.92540695835961,2.3644426837563515
248,42950428,39,0,11,Place du Docteur Yersin,48.82010494991975,2.3725583776831627
1111,653076393,24,1,2,Place du Front Populaire - George Sand,48.90680713698062,2.364541214992642
1197,976762284,26,0,1,Place du Général de Gaulle,48.8525288,2.4877332
655,128843085,25,2,0,Place du Lieutenant Henri Karcher,48.863490871724466,2.3400671035051346
1022,484387018,27,0,3,Place du Maquis du Vercors,48.877321579493575,2.4083782732486725
815,213690256,46,0,0,Place du Maréchal Juin - Péreire,48.885263,2.298286
616,102339791,6,17,2,Place du Maréchal de Lattre de Tassigny,48.821707715257055,2.2853431485432423
595,101761298,34,9,0,Place du Moulin de Javel,48.84021670922,2.2716060653329
276,53999465,67,0,0,Place du Palais Royal,48.862382970647,2.3384822532535
915,275968458,53,3,2,Place du Président Salvador Allende,48.897307310356055,2.40079153681279
1261,1057399900,9,6,9,Placette Grégoire Collas,48.94342014002797,2.2487476095557213
426,75525462,18,14,12,Plantes - Moulin Vert,48.83005755305626,2.3232302069664006
169,27415500,1,22,3,Point du Jour - Jean Jaurès,48.828753141436465,2.245911467014621
1123,653089942,15,0,6,Poissonniers - Championnet,48.89543299733937,2.3530178144574165
1216,1035816937,19,3,4,Poissonniers - Nord,48.892511213520656,2.3522228747606277
553,100770878,12,10,1,Poissy - Saint-Germain,48.84969649427,2.3529685288668
956,363735875,1,9,6,Pont De Charenton,48.8179685,2.4199531
1206,1002059045,20,0,0,Pont Neuf - Rivoli,48.860089892617,2.344057559967
982,419991048,44,2,1,Pont de Levallois-bécon ,48.8984179,2.2791311
26,36003,11,6,1,Pont de Lodi - Dauphine,48.855296898603285,2.339947307565249
1155,653139063,38,5,3,Pont de Suresnes,48.8674150923217,2.225894667961703
3,6295,13,8,1,Pontoise - La Tournelle,48.85045800918843,2.352454275492188
1426,16043282800,30,0,0,Port - Maurice Chevalier,48.832024486306,2.490271087056
189,35263507,20,1,2,Port Royal - Hôpital Cochin,48.838373233813286,2.340717874467373
782,210749865,13,3,2,Port-Royal - Hôpital du Val-de-Grâce,48.8376682728114,2.344813834660711
864,220502135,4,17,13,Porte Dorée,48.8354337,2.4077132
818,213691542,0,0,0,Porte Maillot - Pereire,48.877775,2.284444
484,82554449,56,0,0,Porte Molitor,48.84524763511433,2.2569015249609947
1043,521393180,2,4,15,Porte Pouchet-Bessières,48.8978765,2.3230632
750,210394523,23,9,1,Porte Saint-Martin,48.86860172112996,2.35570102930069
814,213689815,14,11,8,Porte d'Asnières,48.89035817610495,2.3036286234855656
337,54000608,51,2,0,Porte d'Aubervilliers,48.89859661942376,2.3689722642302513
108,27363103,20,10,3,Porte d'Auteuil,48.8479394142243,2.2608396783471107
1000,453172172,9,1,3,Porte d'Italie,48.817161987718954,2.360236309468746
469,82432573,19,19,12,Porte d'Ivry,48.82176874759649,2.3688706755638127
250,43155320,41,0,7,Porte d'Orléans,48.8227639,2.3249313
346,54000619,25,1,7,Porte de Bagnolet,48.864707139122984,2.408344637349607
575,101010226,59,3,4,Porte de Charenton,48.83124010585643,2.3989107459783554
1395,11438116799,25,8,6,Porte de Clichy - Place des Nations Unies,48.896737263309504,2.310542999196392
1124,653091206,36,2,0,Porte de Clignancourt - Ney,48.899641123987095,2.344321422278881
870,221041655,46,3,6,Porte de Clignancourt.,48.897488,2.343996
12,6512,11,0,4,Porte de Ménilmontant,48.8691543609174,2.40932246879487
1126,653092274,28,0,3,Porte de Pantin.,48.889199725577,2.3950181901455
700,129083553,12,14,5,Porte de Saint Cloud - Parc des Princes,48.83866275706582,2.2525164484977727
707,129094535,33,6,2,Porte de Saint-Ouen - Bessières,48.89792240854517,2.32851451022192
1269,1057769632,16,5,4,Porte de Saint-Ouen - Henri Huchard,48.898708366365064,2.3295360803604126
1189,828134511,31,0,1,Porte de Vanves,48.828012849445,2.3056878894567
1436,16529911795,0,0,0,Porte de Versailles,48.832324016657,2.2875617349045
95,27071684,27,0,6,Porte de Vincennes,48.846454,2.415514
451,82339935,34,1,1,Porte de la Muette,48.86302317841182,2.2687188170157406
113,27363205,30,3,1,Porte de la Plaine,48.82805169605981,2.2924277186393742
99,27278603,17,4,3,Porte de la Villette,48.89835196548483,2.386150136590004
1032,491932748,36,0,3,Porte des Lilas - Faidherbe,48.87861855668978,2.4120327830314636
1027,488800137,24,1,0,Portugais - Kléber,48.8712148,2.2937349
1311,1064008882,2,1,17,Poulet - Barbès,48.887148,2.349064
692,129061615,32,1,1,Primo Levi - Frigos,48.83094844846017,2.37965351592796
981,419381597,13,20,10,Professeur René Leriche - Général Leclerc ,48.90782845483013,2.307887971401215
841,213952930,30,0,0,Proudhon - Président Wilson,48.906442763495,2.3584905266762
510,84979504,22,0,1,Provence - Chaussée d'Antin,48.87428447542072,2.332976511564311
47,52456,21,0,7,Pré Saint-Gervais - Lilas,48.87787062698808,2.39590734243393
1434,16379269732,0,0,0,Président Roosevelt - Rouget de Lisle,48.83047518749,2.2616135525345
1004,458086607,23,1,2,Président Wilson - Baudin,48.89826887103676,2.2849336266517644
1023,484423835,16,9,1,Président Wilson - Jean Jaures,48.89034054052266,2.2920683026313786
1039,508042092,29,3,1,Pyramide - Ecole du Breuil ,48.82237977153955,2.4586871266365056
1225,1056972307,24,19,4,Pyramide - Parc Floral,48.837442,2.440452
343,54000616,17,9,4,Pyrénées - Avron,48.853246898211985,2.405871044529538
501,82583924,16,6,6,Pyrénées - Charles Renouvier,48.86095933229224,2.400421852042113
531,89553051,18,0,1,Pyrénées - Cours de Vincennes,48.847796779935,2.4061721563339
227,39878420,18,2,0,Pyrénées - Dagorno,48.855425770695085,2.4051643162965775
607,102324803,33,0,7,Pyrénées - Emmery,48.872010281270974,2.392039597034455
345,54000618,5,2,12,Pyrénées - Maraîchers,48.85714001395299,2.4043509364128113
520,85123644,16,3,7,Pyrénées - Ménilmontant,48.8693268535238,2.395084574818611
194,35472299,8,1,3,Pyrénées - Plaine,48.85026702458,2.4062821269035
1316,1074204954,1,26,2,Quai Jules Guesde - Saint-Simon,48.80391487218989,2.408966162027371
912,269953055,0,22,5,Quai Marcel Boyer - Victor Hugo,48.82255636666729,2.392039597034455
581,101024234,54,2,0,Quai Panhard et Levassor,48.82837482809675,2.384273745805574
290,54000548,22,4,1,Quai Voltaire,48.85894298617901,2.331418204714572
98,27269170,3,11,2,Quai aux Fleurs - Pont Saint-Louis,48.85291595620935,2.352195717394352
1093,653042678,0,20,1,Quai de Béthune - Pont de la Tournelle,48.85097433194032,2.356307208538055
1168,653159330,15,8,3,Quai de Sèvres - Manufacture Nationale,48.828688,2.22499
923,285726279,18,1,3,Quai de Valmy,48.88126951579429,2.368186041712761
847,214019379,10,10,6,Quai de l'Aisne - Général Leclerc,48.895713,2.400571
940,323616530,12,3,1,Quai de l'Horloge - Pont Neuf,48.857058739111096,2.341798283943937
1008,468354634,8,12,9,Quai de l'Oise - Aisne,48.8906231,2.3833701
1249,1057319366,4,22,4,Quai de la Gare - Pont de Bercy,48.83730787972,2.3740861260598
605,102319838,14,1,1,Quai de la Loire - Jean Jaurès,48.88339733854529,2.371074522980134
823,213693511,15,4,3,Quai de la Seine,48.884492238407525,2.3703941702842717
1040,516395829,6,1,4,Quai des Célestins - Henri IV,48.8512971,2.3624535
1252,1057335613,29,1,0,Quai du Président Roosevelt - Pont Aval,48.8343883676388,2.2656820714473724
289,54000547,32,2,1,Quatre Vents - Carrefour de l'Odéon,48.851751374458864,2.338161695134053
813,213689228,37,0,3,Raffet - Montmorency,48.85258670812,2.2629252456151954
638,124176568,13,0,4,Rampal - Belleville,48.87302160156,2.3799109831452
1072,599135701,7,12,23,Ramponeau - Belleville,48.871031137596,2.379056852114
1326,1190800638,10,8,3,Ranelagh - Maison de la Radio,48.85293603169479,2.280449643731117
111,27363162,13,2,8,Ranelagh - Mozart,48.8554439,2.2704418
292,54000550,20,8,2,Rapp - Place du Général Gouraud,48.858102885107,2.3004072904587
622,102745622,18,2,8,Raspail - Albert Schweitzer,48.81031545,2.34395871
558,100859941,44,5,2,Raspail - Bac,48.855628721100935,2.3256602883338933
1047,544249939,46,0,0,Raspail - Chomel,48.852233164303094,2.3266580700874333
1075,613737748,3,19,10,Raspail - Manufacture des Oeillets,48.8094458,2.3903009
761,210567545,12,1,4,Raspail - Varenne,48.85314781654488,2.3263905197381973
1418,14813797734,17,3,4,Raspail Barbès,48.8529945,2.4247387
415,70903158,23,0,0,Raymond Poincaré - Place Victor Hugo,48.870306124369975,2.285074541420228
1373,3906094706,2,22,4,Redoute - Les Courtilles,48.92986719451888,2.283669635653496
545,99840124,42,0,2,Regard - Rennes,48.847385404956,2.3268555477262
1247,1057296253,29,32,1,Regnault - Patay,48.82435782216384,2.377065159380436
412,66507229,23,1,0,Reims - Porte d'Asnières,48.891834448210986,2.300144659954865
816,213690847,26,5,4,Reims - Raymond Pitet,48.8888,2.296319
497,82573931,27,1,5,René Binet - Porte de Montmartre,48.89905109950848,2.3365534096956253
863,218903767,54,7,1,René Boulanger - Lancry,48.8685433,2.3600032
184,35106544,39,8,8,René Coty - Parc Montsouris,48.82479134498032,2.336124926805496
582,101488317,23,7,6,René Coty - Place Denfert-Rochereau,48.833056477316,2.3329411447048
351,54000625,21,8,3,Repos - Cimetière du Père Lachaise,48.859358523593,2.3896131366845
236,42275164,18,12,5,Reuilly - Daumesnil,48.8395385,2.3972516
574,101008598,18,13,9,Reuilly - Place Felix Eboue,48.84030274499962,2.394630398715453
162,27415360,15,1,1,Reynaldo Hahn - Lagny,48.849266043601794,2.412330328844772
35,37791,12,20,0,Richard Lenoir - Jean-Pierre Timbaud,48.86580427668637,2.369337074966926
210,39149651,42,7,1,Richard Lenoir - Place de la Bastille,48.8538327,2.3697222
1045,532054446,42,11,2,Richard Lenoir - Republique,48.8667175,2.3692541
246,42907187,11,11,2,Richard Lenoir - Voltaire,48.86164273878,2.3727491497993
951,353462947,11,14,1,Richard Wallace - Place du 8 Mai 1945,48.87866794788021,2.2420343756675725
114,27363206,0,14,13,Riquet - Marx Dormoy,48.89021003702031,2.3601756244897842
1017,478250062,14,0,2,Rivoli - Musée du Louvre,48.86364636851945,2.33409583568573
214,39202840,17,0,0,Rochechouart - Martyrs,48.882193779572,2.3405495658517
674,129011497,21,0,2,Rochechouart lamartine,48.876719895109,2.344393021853951
529,88140066,62,1,0,Rocher - Laborde,48.87590240712654,2.322616316378116
1376,3906335682,17,7,1,Roger Salengro - Fontainebleau,48.814548697324845,2.36116636544466
1277,1062245074,4,20,0,Roger Salengro - Général de Gaulle,48.820029010376956,2.4846760556101803
1414,13373758036,25,0,3,Roland Garros - Jean Bouin,48.809460857173,2.2853198638301
153,27415215,16,4,5,Romain Rolland,48.820215229662765,2.3234144234418346
1184,653208733,27,2,9,Romainville - Vaillant-Couturier,48.86785,2.446748
1192,907081682,0,0,0,Romainville - Vaillant-couturier,48.868054,2.4470495
294,54000552,29,0,0,Rome - Provence,48.874230055580306,2.325570111724113
504,82588656,33,19,1,Rond-Point Rhin et Danube,48.840452820991764,2.2280225157737736
943,335989765,24,8,12,Rond-Point de la Chapelle,48.895126609314104,2.359971106052399
1237,1057149522,13,1,7,Rond-point du Dr Albert Schweitzer,48.78980918988166,2.3143940046429634
21,7402,2,12,2,Roquette - Auguste Laurent,48.858001906023354,2.381797702650783
511,84983562,34,12,4,Roquette - Folie Regnault,48.859246959155485,2.386553623578705
687,129043651,1,19,1,Roquette - Thiéré,48.85507930579506,2.3733686318721463
563,100902274,35,0,0,Roquépine - Malesherbes,48.87345073390807,2.320404499769211
675,129014600,31,0,0,Rossini - Laffitte,48.87334627510507,2.337980867701675
1265,1057748427,18,13,11,Rottembourg - Général Michel Bizot,48.83787825992554,2.4044052511453633
13,6515,29,0,0,Rougemont - Poissonnière,48.871611569354755,2.345873080193996
1260,1057392676,1,15,8,Rouget de Lisle,48.764615483395254,2.4071189761161804
1088,652192395,10,44,10,Route de Sèvres - Porte de Bagatelle,48.87525984132485,2.249415814876557
1078,624177860,43,7,0,Route de la Muette - Porte de Neuilly,48.8798926,2.2587671
255,43247738,6,14,11,Ruisseau - Ordener,48.89299462568024,2.340144887566567
1089,653031913,18,0,1,Réaumur - Montmartre,48.868230999759,2.3438260338876
683,129034587,13,3,1,Récollets - Square Villemin,48.875034655883944,2.359801238597928
1336,1599931563,28,1,1,République - Auguste Perret,48.78695280952244,2.3518594354391094
1304,1063404053,8,1,9,République - Danton,48.85249172181667,2.462034523487091
731,129161858,16,2,12,République - Henri Barbusse,48.90661553626751,2.389432489871979
1322,1074398925,8,13,14,République - Louis Loucheur,48.823549261189,2.5101865455508
1238,1057179405,19,1,9,Résistance - Hoche,48.864273423741956,2.435784414410591
1303,1063061372,32,0,3,Résistance - Parmentier,48.85965138131299,2.436705082654953
1427,16043316164,19,1,7,Résistance - Romain Rolland,48.950873482371,2.2310190077797
522,85145704,15,5,5,Réunion - Avron,48.852566752033766,2.403928068708116
811,213688462,28,1,9,Sablons - Georges Mandel,48.863875,2.28189
557,100855693,24,1,0,Sabot - Rennes,48.852575112948415,2.331552766263485
621,102743096,15,0,12,Sadi Carnot - François Mitterrand ,48.87532687671517,2.4241617321968083
156,27415256,14,11,8,Sahel - Général Michel Bizot,48.840872964793355,2.4044444784522057
1009,468843711,21,0,0,Saint Georges - d'Aumale,48.87778639599673,2.337429821491241
1350,2515351285,1,20,5,Saint Lambert - Blomet,48.83659148147257,2.2930556908249855
591,101751231,15,9,10,Saint-Amand - Labrouste,48.834097274832295,2.3087677359581
308,54000569,17,13,6,Saint-Ambroise - Parmentier,48.862147844548,2.3772348091006
1015,476155906,22,2,1,Saint-Antoine Sévigné,48.8550222,2.3612322
431,76352106,28,1,0,Saint-Augustin,48.8762009747008,2.319786250591278
230,41219552,21,0,0,Saint-Benoît - Jacob,48.85545136013941,2.3334722220897675
175,30179848,24,0,3,Saint-Blaise - Mouraud,48.85696177597818,2.40869477391243
7,6352,16,0,0,Saint-Bon - Rivoli,48.857999643315,2.3502172809763
1351,2515403527,26,1,1,Saint-Cloud - Hippodrome,48.85772148887421,2.2549109905958176
989,437741660,34,0,1,Saint-Denis - Rivoli,48.859059340842,2.3476943001151
748,210387163,28,4,0,Saint-Denis - Réaumur,48.8661116315789,2.3507790675507594
1241,1057207064,19,1,4,Saint-Denis - Université,48.94563430946964,2.3638297989964485
40,38280,16,0,1,Saint-Didier - Raymond Poincaré,48.86642312020962,2.285863497192411
62,13372702,23,1,8,Saint-Fargeau - Mortier,48.87266656122256,2.407912909984589
279,54000536,31,0,0,Saint-Fiacre - Poissonière,48.87082891155797,2.3459213599562645
136,27414601,42,0,0,Saint-François-Xavier,48.85154484769,2.3146149516106
449,82336035,16,0,1,Saint-Germain - Ciseaux,48.85330527759475,2.334465461882703
1083,647826568,29,0,2,Saint-Germain - Thenard,48.850571,2.3471015
280,54000537,0,9,3,Saint-Gilles - Turenne,48.85815895677863,2.364714992099186
130,27414358,19,0,0,Saint-Honoré - 29 juillet,48.86557114282421,2.330567417577153
938,323468705,17,1,1,Saint-Honoré - Musée du Louvre,48.86344313284792,2.3348781846405102
884,237041013,19,0,0,Saint-Jacques - Soufflot,48.8465255,2.343099
583,101490103,16,4,2,Saint-Jacques - Tombe Issoire,48.833206330538864,2.3369108140468597
96,27206194,17,1,1,Saint-Jacques - Val de Grâce,48.8417514,2.3413893
534,95073815,34,0,0,Saint-Lazare - Place d'Estienne d'Orves,48.8768345,2.3329067
266,49424560,12,12,11,Saint-Mande - Picpus,48.845127728278,2.4015686296482
142,27414937,22,7,10,Saint-Mandé - Docteur Arnold Netter,48.84462585769668,2.404946386814118
