,STATION_ID,NUM_DOCKS_AVAILABLE,NUM_MECHANICAL,NUM_E_BIKES,NAME,LAT,LON,FREQUENCY_AVAILABLE_DOCKS
1278,1062250686,23,6,7,11 Novembre 1918 - 8 Mai 1945,48.80889533774377,2.5382421165704727,0.6389
1272,1062179194,22,3,0,18 juin 1940 - Buzenval,48.868807,2.185428,0.88
1259,1057387136,3,18,8,8 Mai 1945 - 10 Juillet 1940,48.784567029674,2.3979035764933,0.1034
765,210574471,11,0,1,Abbeville - Faubourg Poissonnière,48.879223,2.349147,0.9167
794,213680917,22,1,1,Abbé Carton - Plantes,48.827673823165846,2.320918142795563,0.9167
428,76121343,11,0,1,Abbé Groult - Convention,48.83596927866069,2.302064039509349,0.9167
69,15290700,10,7,1,Aboukir - Alexandrie,48.86868344444473,2.3502043269474897,0.5556
1174,653187900,36,0,2,Adolphe Lalyre - Armand Silvestre,48.90406266961591,2.273416221141815,0.9474
793,213680553,38,2,11,Adolphe Pinard - Victor Hugo,48.8236825874564,2.3077843710780144,0.7451
1390,11437651826,25,0,4,Adrien Lesesne - Docteur Bauer,48.90263867304635,2.348248063431511,0.8621
58,13242682,29,0,2,Alexander Fleming - Belvédère,48.88179064200294,2.4030599377642674,0.9355
494,82571023,36,2,6,Alexandre Dumas - Place de la Réunion,48.85533710742046,2.3997703687646292,0.8182
462,82417874,49,7,1,Alexandre Dumas - Voltaire,48.852888670365,2.3891476408096,0.8596
1193,911767210,20,0,3,Alexandre Parodi - Quai de Valmy,48.87935941942529,2.366596162319184,0.8696
215,39217683,23,1,1,Alfred Roll - Berthier,48.88780857052871,2.30009529817631,0.92
388,66491388,31,0,1,Alfred de Vigny - Place du Général Brocard,48.87836138361425,2.305254448220567,0.9688
747,210386007,9,4,7,Alger - Rivoli,48.864773553495,2.3294493936128,0.45
635,123095125,50,8,0,Alibert - Jemmapes,48.8710440519842,2.366104461987773,0.8621
1305,1063410400,8,4,10,Alouettes - Maréchal de Lattre de Tassigny,48.85511009293948,2.4930700287222862,0.3636
1151,653135378,34,1,1,Amaury Duval - Gabriel Péri,48.81718759671675,2.323841750621796,0.9444
742,208795867,15,0,2,Ambroise Rendu - Porte Brunet,48.883667,2.395733,0.8824
1187,813544903,9,11,6,Amelot - Saint-Sébastien,48.86114216276092,2.367799618107727,0.3462
1129,653099465,22,2,6,Amédée Huon - Fort d'Ivry,48.805131376899986,2.388489693403244,0.7333
862,217572769,26,0,0,Anatole France - Jean Lolive,48.8949922,2.4253764,1.0
964,378626842,42,2,4,Anatole France - Louise Michel,48.88873214926474,2.2881576418876652,0.875
1063,583539396,26,1,1,Anatole France - President Roosevelt,48.9155156,2.3814103,0.9286
1275,1062223873,10,3,7,Ancien Canal - Hélène Brion,48.89484799296163,2.4188338592648506,0.5
1138,653118283,10,13,2,Ancienne Mairie - André Morizet,48.838311,2.234077,0.4
744,209063434,26,1,3,André Karman - République,48.91039875761846,2.3851355910301213,0.8667
1003,457834134,23,5,1,André Maurois - Joseph et Marie Hackin,48.8778983,2.2789591,0.7931
547,99950133,35,10,7,André Mazet - Saint-André des Arts,48.85375581057431,2.3390958085656166,0.6731
1324,1074428106,1,17,8,André Theuriet - Blagis,48.77977325745441,2.3130525648593903,0.0385
774,210737808,23,0,0,Aqueduc - Villette,48.883886063895,2.367198803315,1.0
313,54000577,18,8,1,Arago - Glacière,48.83486054775774,2.3445770524322067,0.6667
1332,1558958733,15,8,5,Arche - Léonard de Vinci,48.89790972494496,2.2383723043644914,0.5357
1091,653040243,4,12,9,Archives - Pastourelle,48.8623615,2.3595041,0.16
658,128880156,9,12,2,Archives - Rivoli,48.857346707443455,2.3539767041802406,0.3913
506,84958519,8,15,8,Arcole - Notre-Dame,48.85388354132773,2.3493797332048416,0.2581
178,34300292,16,5,1,Argenson - Château,48.888559314669514,2.2642001509666447,0.7273
1374,3906153622,6,7,3,Argenteuil - Voltaire,48.91864865955558,2.2814112156629562,0.375
1082,640629438,9,6,6,Aristide Briand - Gare de Bagneux,48.79387269664978,2.321148812770844,0.4286
613,102335085,8,18,0,Aristide Briand - Place de la Résistance,48.82124248401006,2.2511002421379094,0.3077
54,11375742,20,2,3,Arsonval - Falguière,48.84040040365445,2.313117867297474,0.8
668,128932790,17,6,3,Arsène Houssaye - Champs-Elysées,48.873409276267,2.2977904602885,0.6538
1440,16659964929,0,0,0,Arsène Houssaye - Friedland,48.874510616163,2.2994716674148,
526,85160045,19,2,4,Arthur Auger - Jean Jaurès,48.813736445585235,2.3069277405738835,0.76
499,82574979,22,0,1,Arthur Ranc - Hôpital Bichat,48.8978712500682,2.333521842956543,0.9565
267,49474389,17,3,3,Artois - Berri,48.87393521240818,2.3064258322119713,0.7391
57,13191324,32,1,0,Assas - Luxembourg,48.84373446877937,2.333428381875887,0.9697
61,13356269,29,2,1,Assas - Rennes,48.8492084999386,2.32851454623001,0.9062
206,37936869,27,5,3,Assas - Vaugirard,48.848274111398,2.3292413726449,0.7714
762,210568512,49,7,3,Assemblée Nationale,48.86141101465194,2.320121418520769,0.8305
17,7261,17,2,1,Athènes - Clichy,48.878113787876,2.32956021945824,0.85
1205,991351798,22,0,1,Aubervilliers - Curial,48.89088305227546,2.3688579350709915,0.9565
895,255322397,21,4,0,Auguste Blanqui - Corvisart,48.8300989,2.3502726,0.84
1288,1062812659,57,2,0,Auguste Blanqui - Glacière,48.831151602964354,2.3438221961259837,0.9661
1084,648227675,37,1,1,Auguste Cain - Jean Moulin,48.82577028927573,2.3210415244102482,0.9487
1408,12806084887,36,1,2,Avenir,48.8103438,2.3003776,0.9231
1113,653079520,6,4,8,Averroès - Aimé Césaire,48.91405323432864,2.412636950612068,0.3333
1287,1062807847,2,39,17,BNF - Bibliothèque Nationale de France,48.8350268238,2.3760157451034,0.0345
1026,486833337,9,6,15,Bachaumont - Montmartre,48.86617395079137,2.3449775576591496,0.3
871,221043930,26,0,9,Bagnolet - Orteaux,48.85708641027236,2.3984125256538396,0.7429
422,74864208,24,1,2,Bagnolet - Place Saint-Blaise,48.85973,2.40334,0.8889
324,54000592,2,31,3,Balard - Montagne de la Fage,48.83850740333351,2.2782871127128606,0.0556
270,49791363,16,3,11,Balzac - Champs Elysées,48.872699639621,2.3001953959465,0.5333
1243,1057221951,4,18,3,Balzac - Olympes de Gouges,48.77850332486751,2.4006786569952965,0.16
987,434419150,25,9,2,Bara - Henri Farman,48.833218027457846,2.2677567601203923,0.6944
1306,1063421211,37,2,1,Barbès - Monique Maunoury,48.81552718820216,2.3687169334905405,0.925
1293,1062882947,19,1,1,Bargue -  Dutot,48.837884,2.308876,0.9048
1301,1063044618,4,14,10,Bas - Gabriel Péri,48.91585580539625,2.2948095202445984,0.1429
1362,2515829865,5,9,6,Basilique,48.93626891059109,2.3588666820200914,0.25
20,7304,10,0,5,Bassano -  Iéna,48.868144510482075,2.296149600985935,0.6667
1331,1396728955,1,19,3,Bastille - Beaumarchais,48.853833463852,2.3685702681541,0.0435
512,84986959,5,37,20,Bastille - Biscornet,48.851355779579,2.369220033288,0.0806
1226,1056979685,8,8,2,Bastille - Quai de la Rapée,48.84682410855,2.3669364675879,0.4444
1391,11437706131,5,8,1,Bateliers - Quai de Seine,48.915817585516,2.3239533298594,0.3571
708,129095489,23,1,4,Batignolles - Abel Truchet,48.88310390458221,2.323834749088381,0.8214
452,82375611,38,2,4,Batignolles - Beudant,48.88216401466375,2.319852970540523,0.8636
858,215495494,40,1,6,Batignolles - Place de Clichy,48.88347453575669,2.326493114233017,0.8511
454,82381710,9,2,3,Batignolles - Rome,48.881823370566806,2.3202589899301524,0.6429
329,54000597,19,3,0,Bayen - Pereire,48.881804409079656,2.2921088710427284,0.8636
374,66491367,2,11,2,Beaubourg - Michel-le-Comte,48.862534941806,2.3543103039265,0.1333
874,224256188,28,0,1,Beaujon - Wagram,48.875352455985,2.2964416444302,0.9655
919,284711589,14,1,3,Beaumarchais - Pas de la Mule,48.855580507049055,2.368433367343057,0.7778
909,266963426,26,16,8,Beaumarchais - Saint-Gilles,48.8580378,2.3679352,0.52
756,210405211,10,5,5,Beaux-Arts - Bonaparte,48.856451985395786,2.334851883351803,0.5
103,27362896,17,2,7,Beffroy,48.886591074487995,2.261394560337067,0.6538
1342,1981490798,18,1,3,Belfort - Victor Hugo,48.9018492,2.3172724,0.8182
251,43165673,25,9,4,Belfort - Voltaire,48.8563358,2.3829901,0.6579
439,80216231,37,2,0,Belidor - Gouvion-Saint-Cyr,48.88022154052015,2.2854680567979813,0.9487
1101,653059015,24,3,3,Bellefond - Maubeuge,48.878255397645,2.3452642187476,0.8
673,129004826,13,0,4,Bellefond - Poissonnière,48.87759897050706,2.348463758826256,0.7647
698,129080400,19,1,2,Belles Feuilles - Place de Mexico,48.865804746474,2.2829206287861,0.8636
48,52474,20,0,1,Belleville -  Pré Saint-Gervais,48.875565910073,2.3930460959673,0.9524
717,129121741,43,1,5,Belleville - Couronnes,48.868831082877,2.3809862136841,0.8776
714,129114993,30,0,2,Belleville - Porte des Lilas,48.87660391892763,2.404769691129476,0.9375
896,256124192,39,0,1,Belleville - Pyrénées,48.8741908,2.3860039,0.975
641,124402232,37,0,2,Belleville - Télégraphe,48.8756045,2.3995549,0.9487
603,102313219,28,1,4,Belliard - Damrémont,48.89669238777841,2.338023450388167,0.8485
486,82562496,10,5,3,Benjamin Delessert - Jean Lolive,48.89392043619345,2.417981922626496,0.5556
810,213688169,33,0,2,Benjamin Godard - Victor Hugo,48.865983,2.275725,0.9429
102,27359295,28,1,1,Benoît Frachon - République,48.85230729014318,2.415605485439301,0.9333
120,27363389,7,14,4,Bercy - Traversiére,48.846192642574,2.3703800886869,0.28
577,101013666,5,25,20,Bercy - Villot,48.841795009027,2.3767850184816,0.1
145,27415012,6,55,1,Bercy.,48.839966914994,2.3788625746965,0.0968
218,39296638,34,0,1,Berri - Haussmann,48.874746047357135,2.3082953318953514,0.9714
958,365886904,31,3,0,Berthier - Place Stuart Merril,48.885927922355044,2.2933450341224675,0.9118
1119,653085678,7,12,3,Berthier - Porte de Clichy,48.894222687781,2.3125872006816,0.3182
455,82387816,29,1,1,Bertie Albrecht - Hoche,48.87614039826388,2.301303138307601,0.9355
353,54000627,7,9,4,Bertrand Sincholle - Henri Barbusse,48.89925982394349,2.3042294383049016,0.35
1029,488889101,12,14,3,Bessières - Porte de Clichy,48.89611762451474,2.31790903955698,0.4138
1281,1062685145,0,11,2,Bibliothèque Nationale - Richelieu,48.868288993515,2.3380893096328,0.0
1405,12196660096,24,1,3,Bichat - Grange aux Belles,48.873688,2.365015,0.8571
739,205955605,33,2,0,Bienfaisance - Place de Narvik,48.87660163459077,2.3129771277308464,0.9429
1210,1021176825,7,13,2,Billancourt - Général Leclerc ,48.8322649,2.2380413,0.3182
359,54000634,19,3,3,Bineau - Louise Michel,48.88666162206972,2.2843274474143986,0.76
154,27415224,3,23,3,Bir Hakeim,48.853844054333514,2.289705348222022,0.1034
427,75641607,25,2,4,Blaise-Desgoffe - Vaugirard,48.846128877747,2.3242672160268,0.8065
284,54000542,12,14,1,Blancs-Manteaux - Archives,48.85941800703,2.3559471219778,0.4444
1386,11146714746,14,7,6,Blanqui - Docteur Bauer,48.907735489085,2.3407192814591,0.5185
950,349750111,24,4,1,Bleue - Trévise,48.87578906564573,2.347289621829987,0.8276
242,42588096,26,0,2,Bobillot - Moulin des Prés,48.828657346203094,2.353020646316964,0.9286
149,27415150,17,1,3,Bobillot - Paulin Mery,48.829899841747384,2.3543356766748507,0.8095
314,54000578,26,2,3,Bobillot - Tolbiac,48.8255961335041,2.350204177200794,0.8387
887,244498842,47,1,1,Bois de Vincennes - Gare,48.836022242886884,2.4708339950830287,0.9592
467,82425449,48,0,3,Bois de Vincennes - Polygone,48.83544491617421,2.431421081436563,0.9412
1110,653076373,13,19,1,Bois de Vincennes - Porte Jaune,48.838751246689455,2.4605489149689674,0.3939
999,452936197,42,9,9,Bois de Vincennes.,48.8338064,2.4132221,0.7
1062,583178525,16,0,5,Boissière - Etienne Dolet,48.876111,2.4677312,0.7619
1387,11218473640,22,0,2,Bons Raisins - Voltaire,48.87282451461399,2.1947155570850896,0.9167
1057,571923059,41,2,4,Bordier - Félix Faure,48.90390751882016,2.3830059170722966,0.8723
1356,2515686699,25,0,0,Borrégo - Gambetta,48.87330497045532,2.4014145880937576,1.0
663,128890772,8,18,2,Bosquet - Saint-Dominique,48.85865170952645,2.303716580234576,0.2857
926,292871105,12,0,9,Botzaris - Crimée,48.87959698690176,2.3887913337477067,0.5714
825,213694482,17,1,2,Botzaris - Parc des Buttes Chaumont,48.877951,2.381464,0.85
769,210582921,13,0,1,Boudreau - Auber,48.87219,2.329423,0.9286
416,72765603,13,3,3,Boulangers - Cardinal Lemoine,48.8462904,2.3521495,0.6842
586,101740379,40,0,4,Boulard - Daguerre,48.83446472680611,2.3293386027216907,0.9091
565,100906707,43,0,0,Boulets - Faubourg Saint-Antoine,48.849259262115,2.3917546141943,1.0
1021,478952881,17,5,1,Boulets - Voltaire,48.85218705621,2.3890301585197,0.7391
904,265201872,11,37,2,Bourdon - Pont Morland,48.8478103,2.3659356,0.22
562,100893610,14,20,20,Bourdonnais - Tour Eiffel,48.860897797941,2.295599598447,0.2593
1282,1062704564,2,26,14,Bourg l'Abbé - Saint-Martin,48.86393331949257,2.352406270802021,0.0476
946,338824395,6,5,6,Bourse du Travail,48.868976638825686,2.362343855202198,0.3529
147,27415123,22,3,2,Boussingault - Tolbiac,48.82603516605852,2.342176808004326,0.8148
787,213675430,10,36,3,Boutroux - Porte de Vitry,48.822632,2.377738,0.2041
830,213702608,17,0,1,Boyer - Ménilmontant,48.86889516267913,2.3919824145634565,0.9444
857,214298601,19,3,0,Boyer-Barret - Raymond Losserand,48.83329880233322,2.3173383995890617,0.8636
670,128986726,29,3,0,Boétie - Ponthieu,48.871417284354834,2.307678759098053,0.9062
1437,16560752067,0,0,0,Bracion - Périphérique,48.826103771275,2.3004549373748,
929,303102719,5,2,4,Brancion - Lefebvre,48.82900222785569,2.301431038163409,0.4545
1200,979059925,19,2,8,Bridaine - Lamandé,48.8862074,2.3206239,0.6552
790,213677219,11,5,3,Brillat-Savarin - Küss,48.822203,2.350422,0.5789
490,82566934,47,2,3,Brochant - Clichy,48.89032998912038,2.319730559929781,0.9038
704,129089749,28,0,3,Brochant - Square des Batignolles ,48.88818698581028,2.316861143151153,0.9032
65,13912564,13,9,3,Bruant - Vincent Auriol,48.83484845292942,2.366826499627087,0.52
1114,653080383,4,33,7,Bruneseau - Quai d'Ivry,48.82494563758295,2.388566136360169,0.0909
555,100790494,18,0,5,Bréa - Raspail,48.842738478257814,2.329794221763396,0.7826
118,27363337,22,5,3,Bréguet - Sabin,48.856931678257,2.3706749462105,0.7333
1284,1062783107,4,19,4,Buffon - Jardin des Plantes,48.842668466104875,2.3618587106466293,0.1481
913,271426439,12,2,3,Buisson Saint-Louis - Saint-Maur,48.87174684930295,2.3722528328789854,0.7059
911,268976295,21,4,7,Butte aux Cailles - Esperance,48.82758774190948,2.3492151126265526,0.6562
342,54000615,39,2,9,Buzenval - Avron,48.851617204998654,2.401513597307666,0.78
225,39776330,11,4,1,Buzenval - Vignoles,48.85385817168762,2.400004081428051,0.6875
1407,12225289563,26,0,2,Béranger - Félix Faure,48.80404828621485,2.2848263373723436,0.9286
1289,1062827573,27,2,0,Bézout - Général Leclerc,48.82884804502439,2.3285973072052,0.931
31,36473,13,0,0,Cadet - La Fayette,48.875601632672,2.3435704037547,1.0
1267,1057758764,31,5,1,Cadix - Hameau,48.8340107632249,2.289516180753708,0.8378
132,27414512,31,2,7,Caire - Dussoubs,48.86785342111862,2.349364310503006,0.775
405,66491408,32,0,0,Calmette,48.88104925098552,2.424993216991425,1.0
654,128841079,24,3,8,Cambon - Rivoli,48.866143390992,2.3251800647137,0.6857
341,54000612,39,0,1,Cambrai - Benjamin Constant,48.89594736851349,2.381133802246315,0.975
321,54000589,59,8,0,Cambronne - Mademoiselle,48.843277330035214,2.30230766886348,0.8806
475,82455731,35,21,5,Cambronne - Villa Croix Nivert,48.845847561366,2.3017574474216,0.5738
1077,620676855,4,15,3,Camille Groult - Guy Môquet,48.787482746521306,2.3976725712418556,0.1818
1160,653144717,18,0,6,Camille Risch - Paul Armangot,48.774703,2.373685,0.75
972,391845823,15,1,9,Candale - Mehul,48.8893935006175,2.414379715919495,0.6
1382,11004671601,15,8,2,Capitaine Glarner - Gabriel Péri,48.902449900418745,2.3304807533425724,0.6
312,54000573,24,14,6,Cardinal Lavigerie,48.832934193699835,2.402636749399156,0.5455
882,235513935,23,0,4,Carducci - Place Hannah Arendt,48.877436681515796,2.3860743641853337,0.8519
817,213691137,30,0,0,Carnot - Général Lanrezac,48.8754438707356,2.2938242935035684,1.0
1079,631773910,0,20,5,Carnot - Pâquerettes,48.79592939432515,2.4261841177940373,0.0
258,49039283,15,0,3,Carpeaux - Place Jacques Froment,48.8906542,2.3309428,0.8333
1096,653046369,32,2,2,Carrefour Pleyel,48.92034156960326,2.3438543826341625,0.8889
1389,11266280626,30,1,0,Cartier Bresson - Denis Papin,48.902616,2.397814,0.9677
889,251039991,20,1,3,Cassini - Denfert-Rochereau,48.837525839067,2.3360354080796,0.8333
799,213683992,4,45,2,Cauchy - Cévennes,48.8433725710224,2.275132834911347,0.0784
710,129101773,39,0,5,Caulaincourt - Place Constantin Pecqueur,48.8896779050281,2.33817871442611,0.8864
680,129026597,14,0,6,Caumartin - Provence,48.874422773426545,2.3284685611724854,0.7
701,129086648,38,1,3,Ceinture du Lac Inferieure - Saint-Cloud,48.86218070933143,2.2617871686816216,0.9048
235,41610121,11,12,4,Censier - Jardin des Plantes,48.84107178161383,2.355475388467312,0.4074
554,100783424,32,27,7,Censier - Santeuil,48.840658921385234,2.3537524044513702,0.4848
902,263610599,27,8,7,Centenaire - Sorins,48.85853523359734,2.4273508787155156,0.6429
262,49341735,37,0,4,Centquatre,48.88933353845543,2.3707854375243187,0.9024
751,210395439,3,17,3,Centre Georges Pompidou,48.861419,2.352581,0.1304
1127,653094517,36,0,0,Cesaria Evora - Rosa Parks,48.89717672825043,2.3745173960924144,1.0
802,213685090,11,13,3,Cevennes - Bergers,48.84240765130395,2.281037718057633,0.4074
1347,2514995690,2,11,12,Chabanais - Petits Champs,48.86703740186721,2.336716018617153,0.08
632,121025345,10,0,0,Chabrol - d'Hauteville,48.87701838803332,2.3513179644942284,1.0
662,128889359,20,16,4,Champ de Mars - Cler,48.856691550115315,2.306646779179573,0.5
838,213922790,46,1,0,Champeaux - Gallieni,48.864459134684644,2.4161778017878532,0.9787
430,76199461,28,1,2,Championnet - Vauvenargues,48.89401874744574,2.3319872841238976,0.9032
228,39882420,22,0,0,Championnet.,48.8953643,2.3498166,1.0
1319,1074347188,19,1,0,Champs de Manoeuvre - Cartoucherie,48.835261,2.447974,0.95
1208,1015246367,25,0,0,Champs-Elysees - Bassano,48.87181180781605,2.3002389818429947,1.0
1233,1057061349,19,8,4,Chancé Milly - Cimetière Communal Sud,48.89687189382465,2.303922325372696,0.6129
1013,475524450,8,10,6,Chanzy - Sud-Est,48.888912037698766,2.195632159709931,0.3333
273,49859500,6,8,3,Charenton - Diderot,48.846171461187,2.3793068155646,0.3529
18,7268,17,9,5,Charenton - Jardiniers,48.833821772922654,2.394692664106047,0.5484
464,82421013,16,10,3,Charenton - Place du Col Bourgoin,48.844867319554,2.3825789350545,0.5517
576,101011685,0,23,1,Charenton - Prague,48.848175129981,2.3763584494312,0.0
107,27363096,2,20,8,Charenton - Wattignies,48.83667579640627,2.391795855555629,0.0667
541,97824043,6,11,3,Charentonneau - Maisons Alfort,48.809932980484355,2.443288456496946,0.3
72,15299574,19,25,1,Charles Delescluze,48.85242200848887,2.380632497370243,0.4222
220,39535340,19,5,6,Charles Frérot - Albert Guilpin,48.8155839183714,2.3505029082298283,0.6333
1018,478385490,26,0,2,Charles Gide - Fort de Bicêtre ,48.8071937956922,2.353984415531159,0.9286
1229,1057003116,10,17,1,Charles Lecocq - Lecourbe,48.84044,2.294867,0.3571
733,131094294,15,3,8,Charles Tillon - Cimetière Communal,48.91844023641836,2.3935630917549138,0.5769
936,314829539,31,2,16,Charles de Gaulle - Beauté,48.83649602312711,2.479562651149885,0.6327
975,402212574,23,5,0,Charles de Gaulle - Graviers,48.88315175918637,2.2648814320564274,0.8214
948,339797666,21,3,2,Charles de Gaulle - Jean Lolive,48.8932644350857,2.4126765131950383,0.8077
890,252301607,13,8,1,Charles de Gaulle - Madrid,48.884432270368,2.2608044743538,0.5909
947,338853596,19,2,4,Charles de Gaulle - Orléans ,48.88092225101522,2.271581590175629,0.76
901,262607058,27,3,3,Charles de Gaulle - Plateau de Vanves,48.82233088973263,2.298571803412886,0.8182
1425,16043242148,19,1,4,Charles de Gaulle - Rue de l'Alma,48.896620592993,2.252313240191,0.7917
1361,2515802454,15,7,3,Charles de Gaulle - Sablonville,48.87991924860035,2.2763770446181297,0.6
163,27415371,29,2,2,Charonne - Alexandre Dumas,48.85607741505607,2.394869327545166,0.8788
402,66491405,21,2,1,Charonne - Avron,48.85160266522164,2.398403047037931,0.875
868,221036108,45,0,1,Charonne - Bureau,48.854176,2.396093,0.9783
364,55664548,19,12,2,Charonne - Faubourg Saint-Antoine,48.852191909696,2.3740932717919,0.5758
105,27363029,25,3,2,Charonne - Philippe-Auguste,48.855603162026,2.39054639062,0.8333
15,7247,21,2,0,Charonne - Pierre Bayle,48.858445054261914,2.39039812238911,0.913
1041,516709288,19,0,1,Charonne - Robert et Sonia Delauney,48.85590755596891,2.3925706744194035,0.95
878,230877798,31,1,0,Chartres - La Charbonnière,48.8847601,2.3534657,0.9688
1161,653146273,4,13,1,Chausson - Gabriel Péri,48.921891003481115,2.2952306270599365,0.2222
362,54001189,18,4,2,Chaussée d'Antin - Haussmann,48.87243,2.33359,0.75
438,80101533,26,3,3,Chazelles - Courcelles ,48.879406604954,2.3034455627202988,0.8125
1274,1062206433,17,2,1,Chemin Vert - Fraternité,48.877141208359035,2.4461565166711807,0.85
777,210744286,37,4,3,Chemin Vert - Saint-Maur,48.86112461407359,2.381299026310444,0.8409
1253,1057354004,2,20,5,Chemin de Bretagne,48.825147,2.25936,0.0741
587,101742129,20,9,6,Cherche-Midi - Hôpital Necker,48.84461063309956,2.317914068698883,0.5714
44,52329,34,3,0,Chernoviz - Raynouard,48.8569864146289,2.282173218142987,0.9189
578,101015227,6,24,2,Chevaleret - Louise Weiss,48.83258651335057,2.371211388119954,0.1875
788,213676294,11,7,1,Chevaleret - Tolbiac,48.82941,2.375934,0.5789
19,7295,10,2,3,Chevreuse - Montparnasse,48.841739161230905,2.331552216736739,0.6667
1055,569583918,31,6,6,Choiseul - Quatre Septembre ,48.8699355331869,2.3359975218772893,0.7209
229,39887632,19,6,0,Choisy - Malmaisons,48.821919702956144,2.3633468834070914,0.76
996,452341449,23,2,1,Choisy - Tolbiac,48.82591155587,2.3602393269539,0.8846
77,15310509,14,2,1,Choron - Martyrs,48.877851443502536,2.3396701365709305,0.8235
617,102341385,18,4,0,Château - Bineau,48.890404028589806,2.270106375217438,0.8182
1291,1062844489,21,7,5,Château - Place de Catalogne,48.836805542262134,2.3185293003916745,0.6364
491,82567101,0,0,0,Château - République,48.862923800596,2.4155035614967,
1164,653152142,12,1,6,Château - République,48.905928,2.253629,0.6316
396,66491396,34,15,2,Château de Vincennes,48.84423193255657,2.439209537709179,0.6667
1412,13341879803,4,12,6,Châteaudun - Place de la Liberté,48.90970830301211,2.2454486480600626,0.1818
1235,1057081237,24,0,0,Cimetière d'Issy-les-Moulineaux,48.81769977392539,2.260931208729744,1.0
1232,1057045129,25,12,2,Cimetière de Boulogne-Billancourt,48.830764,2.252024,0.641
1069,596813170,15,0,0,Cimetière de Fontenay-sous-Bois,48.84706173362218,2.4787822365760808,1.0
601,102309973,41,0,1,Cimetière de Montmartre,48.886472466141925,2.3328901827335358,0.9762
1250,1057324291,55,0,3,Cimetière de Montrouge,48.822009,2.322188699,0.9483
535,95845524,9,6,1,Cité Riverin - Château d'Eau,48.870702423554306,2.358739863900845,0.5625
560,100868590,20,5,1,Cité Vaneau,48.8542210666207,2.319614924490452,0.7692
1044,523900881,54,2,4,Cité de la Musique,48.888796556487,2.3925811931922,0.9
500,82577019,14,8,8,Cité des Sciences et de l'Industrie,48.89659571178903,2.384599149227142,0.4667
666,128928526,10,2,3,Clapeyron - Moscou,48.88078819514121,2.324815057218075,0.6667
1094,653044270,11,4,0,Claude Bernard - Arbalète,48.83976676978202,2.347510904073715,0.7333
354,54000628,38,7,8,Claude Debussy - Marc Bloch,48.910388180512,2.3117771744728,0.717
122,27363489,22,2,3,Claude Decaen - Cannebière,48.83761417037952,2.397253782195704,0.8148
391,66491391,30,0,1,Claude Vellefaux - Hôpital Saint-Louis,48.87285913900304,2.370071706985146,0.9677
1107,653069115,29,0,2,Claude Vellefaux - Sambre et Meuse,48.875022,2.370478,0.9355
1381,10773448319,8,13,7,Clef des Champs - Albert Dhalenne,48.914938,2.330665,0.2857
1121,653087180,15,4,11,Clichy - Douai,48.88411831886975,2.3287287354469304,0.5
652,126354477,12,4,5,Clichy - Place Blanche,48.883601088297,2.3332237824798,0.5714
602,102311820,30,2,2,Clignancourt - Ordener,48.891457726153774,2.348636478060487,0.8824
1354,2515658032,17,1,1,Clignancourt - Sofia,48.88511992309783,2.34719488842051,0.8947
285,54000543,4,13,8,Cloître Saint-Merri - Renard,48.85883544889818,2.351827919483185,0.16
237,42341698,38,3,2,Cléry - Montmartre,48.867458,2.3445211,0.8837
633,121086415,4,12,7,Colisée - Champs-Elysées,48.870475399387,2.3076190799475,0.1739
628,109609241,18,9,5,Colmar - Victor Hugo,48.88652251096166,2.173960916697979,0.5625
53,10968855,16,1,1,Colonel Monteil - Brune,48.82650293311,2.3092747998272,0.8889
14,7234,0,24,5,Colonel Pierre Avia,48.8296843300915,2.275342586850291,0.0
355,54000629,26,7,1,Commandant Charcot - Bretteville,48.87530570765423,2.2558460757136345,0.7647
264,49403716,21,4,2,Commandant Rivière,48.872933,2.309796,0.7778
640,124390478,14,3,0,Commandant l'Herminier - Gallieni,48.847040552603,2.4160453677177,0.8235
697,129079313,4,33,6,Commerce - Letellier,48.84797660373612,2.2966245196598805,0.093
1071,597245295,12,11,9,Concorde - Stalingrad,48.7985844,2.3821302,0.375
261,49117995,15,1,3,Condorcet - Turgot,48.87985155789093,2.345232367515564,0.7895
1065,586649404,4,11,9,Conservatoire de Musique,48.77093586667601,2.4034014344215398,0.1667
660,128884445,62,2,0,Constantine - Université,48.860680473738334,2.314848195584221,0.9688
1432,16210188070,22,0,6,Convention - Campus de Bobigny,48.914920058264,2.4172238067445,0.7857
479,82499609,4,29,1,Convention - Lourmel,48.84205504165568,2.2859910875558853,0.1176
336,54000607,4,11,3,Convention - Saint-Charles,48.84315611111599,2.2831090539693832,0.2222
593,101756482,9,33,3,Convention - Vaugirard,48.83767682233156,2.295586926020252,0.2
741,208603342,1,17,3,Coquillière - Louvre,48.86379590966231,2.3425736278295517,0.0476
411,66505516,42,1,3,Cordelières - Arago,48.83548071896613,2.348572461702221,0.913
1280,1062671597,3,16,2,Cossonnerie - Sébastopol,48.86132665908402,2.349419631063938,0.1429
160,27415327,21,1,2,Courcelles - Pierre Demours,48.883769733273496,2.29858466343129,0.875
672,129001431,26,2,2,Courcelles - Place des Ternes,48.878199928923124,2.2992860188665043,0.8667
403,66491406,44,3,0,Cours de Vincennes - Davout,48.847238029966,2.4107042336225,0.9362
1246,1057290902,43,2,0,Cours de Vincennes - Soult,48.846918761569,2.4105220288038,0.9556
1142,653125838,19,5,5,Cours de l'Ile Seguin - Parc Billancourt,48.82714055843935,2.234234511852265,0.6552
90,15462861,27,1,2,Crevaux - Bugeaud,48.870809428669546,2.281149007691853,0.9
161,27415333,48,2,5,Crimée - Ourcq,48.894104140316266,2.372946088467279,0.8727
322,54000590,25,19,3,Croix Nivert - Square Saint-Lambert,48.8430515215905,2.295200452208519,0.5319
315,54000581,29,2,2,Croulebarde - Corvisart,48.830981659316855,2.3481646925210953,0.8788
569,100923502,6,7,4,Crozatier - Faubourg Saint-Antoine,48.850440013405,2.378901366211,0.3529
25,35908,10,2,7,Cujas - Saint-Michel,48.848191348584,2.341831654854,0.5263
87,15433394,31,6,4,Custine - Ramey,48.888735896947,2.3469526693225,0.7561
269,49772483,18,0,0,Damrémont - Caulaincourt,48.88714509078738,2.3325880989432335,1.0
496,82572699,27,1,2,Damrémont - Ordener,48.893400392981874,2.336266523912805,0.9
1134,653110492,19,5,4,Danielle Casanova - Ledru-Rollin,48.815783497876815,2.383259721100331,0.6786
133,27414527,1,14,3,Danielle Casanova - Opéra,48.867643242297284,2.3333894088864326,0.0556
131,27414460,3,18,13,Danielle Casanova - Place Vendôme,48.86826649822326,2.3304839059710503,0.0882
556,100798076,0,14,6,Danton - Serpente,48.85229736258167,2.3414132371544834,0.0
433,76507850,28,0,5,Dantzig - Lefebvre,48.83013921586756,2.295934036374092,0.8485
84,15411223,22,2,0,Dareau - Broussais,48.8307758,2.3361804,0.9167
395,66491395,2,31,4,Daumesnil - Hébrard,48.8429,2.38474,0.0541
997,452347778,16,3,2,Daumesnil - Picpus,48.8374688,2.401765,0.7619
749,210389577,1,10,4,Daunou - Louis le Grand,48.869113,2.332515,0.0667
795,213681356,17,2,2,David Weill - Parc Montsouris,48.821092374256104,2.333725690841675,0.8095
348,54000622,25,1,1,Davout - Volga,48.852919679957296,2.410522909779111,0.9259
530,88230992,27,1,2,De Toqueville - Terrasse,48.882428,2.314002,0.9
1031,491687415,17,2,3,Delizy - Louis Nadot,48.896212845581346,2.4094578623771667,0.7727
738,205938683,49,0,0,Delphine Seyrig - Général Leclerc,48.893923963057865,2.39790290594101,1.0
1325,1109534105,18,0,2,Demi-Lune - Aristide Briand,48.87626381919953,2.4562818557024,0.9
259,49085250,14,2,1,Departement - Pajol,48.886674849730184,2.3613611608743668,0.8235
596,101763163,3,5,1,Desaix - Edgar Faure,48.852804604940296,2.293077029857222,0.3333
1378,9931940126,34,2,1,Diane Arbus,48.898800717199,2.3524022474884987,0.9189
311,54000572,10,8,2,Diderot - Pierre Bourdan,48.847648620797,2.3902582749724,0.5
1194,912377361,7,30,5,Diderot - Reuilly,48.847208456061,2.3861273378134,0.1667
792,213680246,28,4,3,Didot - Mariniers,48.82650543613106,2.313136198271666,0.8
585,101738550,19,3,0,Didot - Place de Moro-Giafferi,48.8337,2.3215,0.8636
1399,11851103861,25,0,0,Division Leclerc - Kléber,48.798666226364,2.2833752789972,1.0
1400,11851327865,30,0,0,Docteur Calmette - Martre,48.898969358483,2.3086513252383,1.0
344,54000617,14,4,0,Docteurs Déjérine - Pte de Montreuil,48.85398448133697,2.41208288897222,0.7778
37,37995,25,16,7,Dom-Pérignon - Gravelle,48.82548157443457,2.4098803102970128,0.5208
129,27399547,5,14,2,Dominique Pado - Croix Nivert,48.83648798164934,2.2897250577807426,0.2381
1380,10647608657,18,2,6,Dora Maar - Nadia Guendouz,48.905452421305,2.3220406472683,0.6923
679,129025451,25,0,1,Douai - Bruxelles,48.88320784122797,2.3308449949028507,0.9615
43,38522,22,1,1,Douai - Pierre Fontaine,48.88229101148092,2.33324121683836,0.9167
310,54000571,22,22,5,Dugommier,48.838811048815,2.3896577954292,0.449
11,6497,17,1,2,Duhamel - André Gide,48.8365662244334,2.312707121097412,0.85
468,82429586,29,4,4,Duméril - Jeanne d'Arc,48.83815160808658,2.357108449556404,0.7838
772,210585225,18,0,2,Dunkerque - Alsace,48.879355,2.358379,0.9
773,210586093,21,0,0,Dunkerque - Rocroy,48.880726,2.351464,1.0
935,312870435,11,0,1,Dunkerque - Trudaine,48.88215166773376,2.3463253676891327,0.9167
876,224598098,32,6,11,Dunois - Clisson,48.832294,2.3674523,0.6531
393,66491393,10,33,1,Dupleix - du Guesclin,48.85147910413369,2.296709530055523,0.2273
561,100872260,23,10,7,Duroc - Place de Breteuil,48.84746064114221,2.3126140236854558,0.575
478,82468690,48,6,1,Dutot - Place Alleray,48.836826091766,2.3071701095578,0.8727
1136,653114003,12,11,1,Dôme - République,48.832681,2.250257,0.5
1014,476053320,8,14,1,Ecole Militaire - Place Joffre,48.852060203582795,2.301799356937409,0.3478
1341,1968156458,15,16,4,Ecole Vétérinaire,48.81488859822486,2.4224362157778994,0.4286
446,82332239,21,9,5,Ecoles - Carmes,48.848904447989405,2.3473486304283147,0.6
316,54000582,0,6,18,Edgar Quinet - Gaité,48.84116092896631,2.32459545135498,0.0
737,205047993,34,0,11,Edgar Quinet - Raspail,48.83940266673835,2.32971478253603,0.7556
1173,653184632,27,1,5,Edith Cavell - Volta,48.901616564286975,2.269354350864887,0.8182
326,54000594,25,0,1,Edouard Pailleron - Bouret,48.880597694070524,2.3769494891166687,0.9615
97,27246227,23,0,1,Edouard Pailleron - Simon Bolivar ,48.87979886049996,2.374839261174202,0.9583
945,338762459,18,3,7,Edouard Poisson - Victor Hugo,48.91118557052621,2.379864752692811,0.6429
1058,572566600,23,0,7,Edouard Tremblay - Julian Grimaux,48.781383825117,2.3723508417606,0.7667
839,213936755,49,0,0,Edouard Vaillant - Galliéni,48.858462881661,2.4147954583168,1.0
891,252339799,19,5,3,Edouard Vaillant - Paul-Adolphe Souriau,48.83484585882868,2.2479459643363957,0.7037
51,63297,19,1,0,Eglise d'Auteuil,48.84749841771691,2.26848387135299,0.95
969,389788858,6,56,7,Emeriau - Beaugrenelle,48.84791249714942,2.2843059897422795,0.087
695,129077035,1,47,2,Emeriau - Place de Brazzaville,48.850785261674964,2.2871585190296173,0.02
371,63769334,35,2,1,Emile Blemont - Poteau,48.8943782,2.3415122,0.9211
190,35317080,20,1,1,Emile Reynaud - Porte de la Villette ,48.90098953630053,2.3887022584676743,0.9091
1028,488872892,4,27,10,Emile Zola - Fondary,48.847051143113745,2.2953405976295476,0.0976
629,117480156,21,16,3,Enfants du Paradis - Peupliers,48.833122686454,2.2571459412575,0.525
685,129038848,12,2,0,Enghien - Faubourg Poissonnière,48.872420063053,2.3483952362828,0.8571
408,66505510,55,3,5,Epée de Bois - Mouffetard,48.841508690388835,2.350066713988781,0.873
1348,2515049357,17,3,3,Erasme - Ulm,48.84264375274712,2.3445946723222733,0.7391
1236,1057091571,13,7,4,Esplanade du Foncet - Camille Desmoulins,48.827090233494964,2.2606857866048813,0.5417
525,85155919,28,0,1,Estienne d'Orves - Henri Ginoux,48.815388220397274,2.320886790760933,0.9655
752,210396518,8,3,5,Estrapade - Ulm,48.84512772828039,2.3454568170361734,0.5
414,70736110,29,0,4,Etienne Dolet - Place Maurice Chevalier,48.86798303359366,2.3851405311143026,0.8788
604,102314792,22,3,4,Etienne Jodelle - Saint Ouen,48.88794016394694,2.326124420314341,0.7586
277,54000465,0,19,8,Etienne Marcel - Montorgueil,48.86450567259199,2.3461959511041637,0.0
898,256561528,39,1,3,Eugène Oudiné - Dessous Des Berges,48.8256423,2.3750226,0.907
1358,2515738489,15,0,4,Eugène Reisz - Davout,48.85631874632638,2.410396970808506,0.7895
1307,1063429705,20,2,1,Eugène Varlin - Place de la Paix,48.792862,2.363093,0.8696
181,35080917,22,1,7,Euryale Dehaynin - Loire,48.886248917304805,2.3774591088294987,0.7333
521,85143075,26,1,2,Evariste Galois,48.87308753734472,2.4133380129933357,0.8966
488,82563707,26,1,3,Exelmans - Michel-Ange,48.84309486651855,2.2597770800669053,0.8667
487,82562556,44,2,2,Exelmans - Versailles,48.84097491091973,2.264390252530575,0.9167
806,213686471,14,7,3,Eylau - Trocadéro,48.863354122371,2.2864209115505,0.5833
1060,581480367,64,1,2,Fabre d'Eglantine - Place de la Nation,48.8471116,2.3956204,0.9552
463,82419429,22,14,1,Faidherbe - Dahomey,48.851358329771806,2.383823134795429,0.5946
934,312165511,23,7,5,Faubourg Du Temple - Republique,48.867872484749,2.3648982158072,0.6571
226,39799329,33,1,1,Faubourg Montmartre - La Fayette,48.87525454905335,2.340853661298752,0.9429
1211,1021553839,28,3,3,Faubourg Poissonniere - Delta,48.882555807626765,2.3497482016682625,0.8235
1222,1056947780,29,0,0,Faubourg Poissonnière - Dunkerque,48.880883445404436,2.349934279918671,1.0
1423,15826185972,13,0,3,Faubourg St-Antoine - Place de la Nation,48.8487726,2.393606,0.8125
812,213688824,31,0,0,Faustin Hélie - Desbordes-Valmore,48.859403,2.276522,1.0
27,36151,10,2,3,Favart - Italiens,48.87144635392104,2.338290105850787,0.6667
432,76488849,3,28,4,Fernand Braudel - Vincent Auriol ,48.83637852318147,2.3723404482007027,0.0857
423,75313725,31,2,1,Ferrus - Saint-Jacques,48.8313878,2.3408563,0.9118
1231,1057039016,11,4,2,Fessart - Château,48.84245,2.23989,0.6471
1139,653121023,13,9,2,Fief - République,48.83170888166024,2.255771979689598,0.5417
538,96608796,6,15,4,Fille du Calvaire - Turenne,48.86210505412563,2.3649600148200993,0.24
630,120564786,44,11,2,Filles Saint-Thomas - Place de la Bourse,48.86889989085307,2.3397543845203477,0.7719
824,213694069,16,4,5,Flandre - Alphonse Karr,48.89465,2.381868,0.64
193,35471668,26,0,3,Flandre - Ourcq,48.89260159189023,2.3790915682911873,0.8966
401,66491404,15,2,3,Flandre - Riquet,48.888013281448,2.3737595955229,0.75
271,49807107,8,1,7,Flandrin - Henri Martin,48.8643275,2.2724174,0.5
42,38407,36,5,1,Flandrin - Longchamp,48.86877849178477,2.274354539176829,0.8571
1421,15189890802,21,0,3,Fontaine du Tertre - Calvaire,48.8702539,2.2187778,0.875
527,85162552,43,0,1,Fontainebleau - Edmond Michelet,48.80956436844049,2.3626908659935,0.9773
386,66491385,18,1,2,Fontenay - Libération,48.84780306364685,2.445141971111298,0.8571
1257,1057378487,9,5,4,Fort d'Aubervilliers,48.91502382370325,2.4035281687974925,0.5
399,66491401,44,8,4,Fragonard - Porte de Clichy,48.894155633419,2.3143893107772,0.7857
1106,653066427,20,0,6,Franciade - Gabriel Péri,48.93261499331498,2.355954498052597,0.7692
419,74692052,26,1,7,Francoeur - Caulaincourt,48.8899944409612,2.342529706656933,0.7647
711,129103849,13,2,3,Francoeur - Marcadet,48.89104123261663,2.340014585442034,0.7222
323,54000591,34,0,2,Franquet - Labrouste,48.83287705011431,2.306762784719467,0.9444
995,443654970,6,15,14,Française - Etienne Marcel,48.864053304653766,2.347587011754513,0.1714
410,66505513,23,2,6,François 1er - Lincoln,48.86951797934417,2.302426218841562,0.7419
409,66505511,19,2,8,François 1er - Montaigne,48.866887649978096,2.306675575720671,0.6552
837,213911772,49,2,3,François Debergue - Croix de Chavaux,48.857421708072074,2.437578141689301,0.9074
223,39599631,19,2,2,François Ponsard - La Muette ,48.8583666,2.2744515,0.8261
910,267976590,0,59,6,François Truffaut - Saint Emilion,48.83372354344807,2.386601903271428,0.0
1290,1062833975,30,1,2,Froidevaux - Boulard,48.83514731962543,2.3294411972165108,0.9091
459,82405965,29,6,5,Froment - Bréguet,48.8570414504784,2.37289470306807,0.725
165,27415411,22,1,0,Frères Flavien - Porte des Lilas,48.8780992764359,2.41104629853209,0.9565
800,213684314,3,13,8,Fédération - Suffren,48.852828153442346,2.2978776320815086,0.125
597,102287315,8,29,2,Félix Faure - Convention,48.841249336041045,2.288386600849503,0.2051
892,253357936,6,46,6,Félix Faure - Lourmel,48.83868901709515,2.2818081825971603,0.1034
360,54000635,5,2,24,Félix Faure - Sadi Carnot,48.90812110228388,2.378623187541962,0.1613
713,129107656,22,1,2,Félix Ziem - Armand Gauthier,48.88949630486821,2.333393658804396,0.88
365,55927887,0,27,8,Gabriel Lamé,48.8351212784276,2.385534569621086,0.0
1076,620403530,2,15,2,Gabriel Péri - Danielle Casanova,48.790114,2.4025777,0.1053
743,209057581,14,1,3,Gabriel Péri - Francisco Ferrer,48.88633710236977,2.407338917255402,0.7778
651,126175087,19,1,3,Gabrielle Josserand - Edouard Vaillant,48.90271566255436,2.3933270573616032,0.8261
89,15462236,30,0,1,Galilée - Kléber,48.86741186571367,2.290781380114821,0.9677
293,54000551,10,2,3,Galilée - Vernet,48.871715878697,2.2985444962978,0.6667
903,263732151,26,5,1,Gambetta - Michelet,48.85273792380526,2.429966032505036,0.8125
164,27415389,26,0,2,Gambetta - Père Lachaise,48.864295696165875,2.398228667282044,0.9286
239,42517412,21,0,2,Gambetta - Saint Fargeau,48.871244610447015,2.4039056897163396,0.913
350,54000624,0,0,0,Gambetta - Tourelles,48.875337902264,2.4059921130538,
1403,11908496227,24,0,0,Gardenat Lapostol - Franklin Roosevelt,48.871839,2.222505,1.0
1296,1063000561,17,0,3,Gardenat-Lapostol - Velettes,48.87387,2.224185,0.85
1435,16529895896,0,0,0,Gare - Aristide Briand,48.821410564722,2.2555950104387,
854,214134714,5,9,10,Gare Arcueil - Cachan,48.799824,2.328171,0.2083
38,38060,43,0,0,Gare Montparnasse - Arrivée,48.843827994315,2.3225811123848,1.0
240,42541542,1,15,16,Gare Montparnasse - Edgar Quinet,48.841487851079,2.3233232282801,0.0312
472,82445192,29,1,8,Gare Montparnasse - René Mouchotte,48.83920384329242,2.320883944630623,0.7632
320,54000588,45,1,17,Gare Montparnasse - Vaugirard,48.8418071798797,2.31951002690117,0.7143
1415,13373801574,5,14,6,Gare RER,48.896241412268,2.4595758300992,0.2
1149,653133605,8,11,24,Gare RER - Canadiens,48.81995307955795,2.464176752459464,0.186
1419,15066765479,12,13,14,Gare RER - Général de Gaulle,48.933548439566,2.3064726536317,0.3077
852,214119792,7,13,0,Gare RER - Malleret-Joinville,48.802936,2.42531,0.35
1132,653106960,12,20,3,Gare RER - Maurice Grandcoing,48.813881,2.392429,0.3429
855,214139374,26,2,2,Gare RER de Gentilly,48.814280450380224,2.3410347104072575,0.8667
1102,653059879,5,22,9,Gare RER de Saint-Denis,48.93554324248177,2.3471488058567047,0.1389
625,102749572,19,20,8,Gare RER de Vincennes,48.847563015126106,2.433383166790009,0.4043
1258,1057383154,2,38,9,Gare RER les Ardoines,48.783856363467,2.4079093717471,0.0408
1256,1057373549,3,12,4,Gare RER les Grésillons,48.919898633572764,2.31458459136273,0.1579
881,235241110,52,5,2,Gare Rer de Fontenay sous Bois,48.8436279,2.4630465,0.8814
1273,1062192012,6,12,13,Gare Rosny-Bois-Perrier,48.88115023337061,2.480436824262142,0.1935
834,213868408,8,13,8,Gare Routière de Saint Cloud,48.84288183896324,2.222245037555695,0.2759
928,302725495,50,0,1,Gare SNCF Vanves-Malakoff,48.819002163836444,2.292150005103606,0.9804
974,394404659,26,14,0,Gare Saint-Lazare - Cour du Havre,48.87567440085132,2.3265598341822624,0.65
665,128920403,18,3,5,Gare Saint-Lazare - Isly,48.874777677621296,2.326515804784655,0.6923
767,210581084,23,0,2,Gare Saint-Lazare - Place de Budapest,48.877753,2.327339,0.92
296,54000554,26,3,2,Gare Saint-Lazare - Stockholm,48.877127316667654,2.322417162358761,0.8387
1245,1057234527,25,2,10,Gare d'Argenteuil,48.947022436806705,2.256898172199726,0.6757
1201,985086307,14,7,1,Gare d'Asnières sur Seine,48.90636459217474,2.2835066914558415,0.6364
784,210753033,2,8,2,Gare d'Austerlitz,48.842524,2.364044,0.1667
1310,1064000778,10,31,9,Gare d'Austerlitz - Pont Charles de Gaulle,48.842319830109304,2.3670300096273422,0.2
188,35196898,27,0,0,Gare d'Austerlitz - Quai Saint-Bernard,48.84369030864,2.3657163977623,1.0
1295,1062982815,13,1,6,Gare de Bellevue,48.8192404685572,2.2295309230685234,0.65
465,82421994,0,28,5,Gare de Bercy,48.839794573906,2.3826066032052,0.0
1171,653175838,13,0,5,Gare de Chaville Rive Gauche,48.80516030434533,2.188277207314968,0.7222
833,213857398,10,1,3,Gare de Clamart,48.81383535598703,2.272278964519501,0.7143
914,271540743,17,2,6,Gare de Clichy-Levallois ,48.89679827481989,2.2984680533409123,0.68
1056,570185777,0,0,0,Gare de Courbevoie,48.8993867,2.2506506,
849,214102967,37,1,5,Gare de Laplace,48.80893199114179,2.3349460959434514,0.8605
570,100925033,5,31,5,Gare de Lyon - Chalon,48.845666194202,2.3741452395916,0.122
397,66491397,41,15,1,Gare de Lyon - Place Louis Armand,48.845515089794,2.3726498446286,0.7193
466,82423726,9,54,4,Gare de Lyon - Roland Barthes,48.84395729494058,2.3790882155299187,0.1343
925,291354793,16,31,1,Gare de Lyon - Van Gogh,48.843839785643,2.3704450240357,0.3333
1001,457713145,32,6,5,Gare de Nanterre Ville,48.8950295,2.1957932,0.7442
851,214114469,3,24,4,Gare de Nogent-le-Perreux,48.83842553348809,2.493693307042122,0.0968
705,129091653,28,1,3,Gare de Pont-Cardinet,48.88713901475306,2.314494143994255,0.875
52,77773,24,0,4,Gare de Reuilly - Picpus,48.84267354116789,2.3972943797707558,0.8571
1170,653166892,9,0,19,Gare de Robinson,48.7799259211605,2.281828634440899,0.3214
457,82402482,56,0,1,Gare de l'Est - Chateau Landon,48.879305,2.362424,0.9825
961,369644630,32,0,0,Gare de l'Est - Faubourg-Saint-Martin,48.875642647477,2.3594588041306,1.0
771,210584503,8,3,2,Gare de l'Est - Fidélité,48.874575,2.356796,0.6154
1016,476183970,35,3,0,Gare de l'Est - Place du 11 Novembre 1918,48.876327,2.3585464,0.9211
684,129036192,10,1,1,Gare de l'Est - Verdun,48.87615605427147,2.360914908320552,0.8333
1183,653205656,21,2,4,Gare de la Garenne-Colombes,48.909752,2.239145,0.7778
1165,653153519,5,8,7,Gare des Vallées,48.913179,2.257726,0.25
1105,653065577,28,0,1,Gare du Nord - Demarquay,48.881154,2.358411,0.9655
1068,594942659,20,0,0,Gare du Nord - Denain,48.879595787608096,2.3544725775718693,1.0
34,37647,23,0,3,Gare du Nord - Dunkerque,48.88042350842878,2.3527636751532555,0.8846
298,54000556,25,1,0,Gare du Nord - Faubourg Saint-Denis,48.879612765503616,2.3568402975797653,0.9615
776,210740080,46,0,3,Gare du Nord - Hôpital Lariboisière,48.881949,2.352339,0.9388
1309,1063984816,10,4,2,Gare du Nord - La Chapelle,48.884178287286,2.3561057075858,0.625
1103,653062048,20,1,2,Gare du Nord - Place de Valenciennes,48.879089,2.354235,0.8696
6,6298,18,0,0,Gare du Nord - Saint-Vincent de Paul,48.880955741648,2.3524305148385,1.0
1329,1314450240,1,14,3,Gare du Stade,48.9312676,2.2603778,0.0556
1383,11004720021,19,7,3,Garibaldi - Gabriel Péri,48.905741911394,2.3316044208059,0.6552
963,376664868,24,2,2,Gaston Roussel - Commune de Paris,48.89432034553156,2.432552274419542,0.8571
993,443198808,31,4,2,Gaston Tessier - Rosa Parks RER,48.8963765,2.3743692,0.8378
16,7254,18,1,4,Gay Lussac - Saint-Jacques,48.844730256132095,2.341923944866407,0.7826
301,54000560,9,6,3,Geoffroy - Marie,48.873781940593325,2.344513876337893,0.5
55,11580442,10,4,2,Geoffroy-Saint-Hilaire - Saint-Marcel,48.83907826424974,2.356877340669728,0.625
67,15163771,23,4,1,George Sand - Jean de La Fontaine,48.84986918764119,2.268257387525699,0.8214
1052,559980654,15,6,1,George V - Christophe Colomb,48.87046,2.30104,0.6818
1402,11908488283,22,0,2,Georges Pompidou - Verdun,48.875481,2.232443,0.9167
369,60667075,21,0,0,Georges V - François 1er,48.87034,2.30082,1.0
152,27415194,36,0,0,Gergovie - Alésia,48.83088717455243,2.318882101207347,1.0
1228,1056995858,27,0,1,Gergovie - Vercingétorix,48.83453413883994,2.313154547426182,0.9643
1327,1227051850,36,1,3,Glacière - Soeur Catherine Marie,48.829522989420596,2.343570403754711,0.9
507,84960402,21,13,1,Gobelins - Port-Royal,48.83713590026284,2.3515201359987254,0.6
30,36391,5,12,4,Godot de Mauroy - Madeleine,48.869789,2.326347,0.2381
8,6354,27,2,2,Gouthière - Poterne des Peupliers,48.820507,2.351342,0.871
211,39151458,15,1,3,Goutte d'or - Barbès,48.88512432362698,2.349696233868599,0.7895
779,210746090,43,4,1,Grand Prieuré - Crussol,48.864660627935,2.3692265531829,0.8958
740,207633746,49,0,1,Grande Armée - Brunel,48.876116,2.288124,0.98
1299,1063027377,18,3,4,Grande Rue - Europe,48.8218104687602,2.205879874527455,0.72
865,220504949,2,17,12,Grande Truanderie - Saint-Denis,48.8626302,2.3498075,0.0645
45,52393,48,0,0,Grands Moulins de Pantin,48.89738369720229,2.3959985375404362,1.0
305,54000565,22,1,2,Granges aux Belles,48.8761373390584,2.3680844979417,0.88
686,129042700,55,2,2,Granges aux Belles - Hôpital Saint-Louis,48.874794994841274,2.366669436984963,0.9322
781,210748575,32,12,7,Gravelle - Route du Bac,48.824407,2.418455,0.6275
514,85008390,5,61,3,Grenelle - Dr Finlay,48.851315406715976,2.2919502854347233,0.0725
801,213684750,3,24,6,Grenelle - Violet,48.84993035512154,2.294612042605877,0.0909
942,335780498,2,9,17,Greneta - Sebastopol,48.865242333228,2.3516669869423,0.0714
517,85043758,29,5,2,Guersant - Gouvion-Saint-Cyr,48.88287775178599,2.287667370814871,0.8056
977,406806401,19,8,1,Guichet - Jean Jaurès,48.905169868129036,2.3023840785026555,0.6786
460,82408364,35,1,1,Guillaume Bertrand - République,48.86382517434147,2.38090637715497,0.9459
406,66491409,20,0,0,Guillaume Tell - Parc Henri Barbusse,48.88958925894009,2.4198862910270695,1.0
1144,653127524,19,5,6,Gustave Eiffel - Parc des Impressionnistes,48.90390619651018,2.2946908324956894,0.6333
384,66491382,23,6,6,Guy Môquet - Compoint,48.89213559044868,2.32321947813034,0.6571
192,35447568,17,3,3,Guy Môquet - Etienne Dolet,48.81527009991819,2.298078276995073,0.7391
1410,12948189248,21,6,1,Guy Môquet - Jean Moulin,48.940931521020836,2.363948999931771,0.75
1340,1810975577,24,1,3,Guy Môquet - Parvis Georges Marchais,48.79518840095975,2.35943466424942,0.8571
957,365181481,43,2,5,Guy Môquet - Saint-Ouen,48.892777719023975,2.3270335793495183,0.86
548,100227241,29,4,2,Guynemer - Jardin du Luxembourg,48.8466127,2.3325478,0.8286
1195,933214552,2,19,2,Guynemer - Séverine,48.83091743371036,2.2790706530213356,0.087
1330,1333959209,13,1,5,Génie - Mozart,48.794902381218904,2.3734183609485626,0.6842
883,235599121,20,1,3,Général De Gaulle - Alouette,48.839109,2.4175664,0.8333
110,27363156,15,6,1,Général De Gaulle - Vivien,48.83607420090204,2.4189166724681854,0.6818
620,102724418,6,10,9,Général Leclerc - Bièvre,48.782414428747316,2.3166695237159733,0.24
1037,506455295,10,5,1,Général Martial Valin - Pont du Garigliano,48.83823094269141,2.270506024360657,0.625
144,27415004,20,10,7,Général Michel Bizot - Claude Decaen,48.83481262982544,2.400927788127704,0.5405
68,15212034,16,1,2,Gérando - Rochechouart,48.88294340845,2.3464846238494,0.8421
404,66491407,20,1,0,Haies - Réunion,48.85386896766491,2.402426162238911,0.9524
1048,549480297,5,11,7,Halle Freyssinet - Parvis Alan Turing,48.832846814471,2.3711421713233,0.2174
1263,1057730786,9,6,5,Halles - Bourdonnais,48.860448992575,2.3460162431002,0.45
109,27363137,14,4,2,Hameau Fleuri - Marché,48.831448892608314,2.2412404417991643,0.7
552,100769544,9,27,8,Harpe - Saint-Germain,48.851518815017,2.3436703160405,0.2045
32,37420,15,1,1,Hauteville - Bonne Nouvelle,48.87077436024043,2.349649636832728,0.8824
10,6399,1,0,0,Hautpoul - Jean Jaurès,48.886393679436,2.3865414544355,1.0
718,129124069,19,0,1,Haxo - Surmelin,48.8694370761222,2.40539657537972,0.95
639,124183944,10,40,0,Hector Malot - Daumesnil,48.84693552991762,2.3770876228809357,0.2
1392,11437761399,6,9,15,Henri Barbusse - Bourguignons,48.91301722799713,2.2734212270774417,0.2
1406,12225158518,24,0,2,Henri Barbusse - Gabriel Péri,48.801773795836,2.2874166362216,0.9231
1441,16816575934,0,0,0,Henri Barbusse - Marcel Cachin,48.938452457583,2.3718065906479,
1002,457813746,10,0,5,Henri Barbusse - Stalingrad,48.814183748660554,2.2872862592339516,0.6667
1230,1057009034,22,0,5,Henri Chevreau - Couronnes,48.87033205312931,2.388777695596218,0.8148
1159,653143563,23,1,6,Henri Ravera - Gabriel Péri,48.79722273833844,2.302115857601166,0.7667
835,213875650,15,6,1,Henri Ste-Claire Déville - Paul Héroult,48.892663,2.172411,0.6818
592,101753100,1,12,3,Henry Farman,48.83372430280548,2.2713854536414146,0.0625
260,49094984,29,0,8,Herschel - Observatoire,48.84342376221923,2.3376645147800446,0.7838
1317,1074333296,28,13,0,Hippodrome Paris-Vincennes,48.82048387758518,2.446271181106568,0.6829
1352,2515618216,19,8,2,Hippodrome de Longchamp,48.86413226532,2.239905372262,0.6552
1430,16206691682,30,0,0,Hispano Suiza - Parc des Bruyères,48.915885074177,2.2682306702811,1.0
1066,588452142,19,2,1,Hoche - Jean Lolive,48.89110239200789,2.402843534946442,0.8636
764,210573120,31,0,0,Hoche - Tilsitt,48.874836457837,2.2971323132515,1.0
917,278576043,13,0,3,Honoré d'Estienne d'Ovres - Grilles,48.89056394743836,2.4064831843792427,0.8125
1394,11438049493,30,1,0,Hélène et François Missoffe - Emile Borel,48.89990653843488,2.321543991674844,0.9677
783,210751059,15,1,0,Hôpital - Campo-Formio,48.835405,2.358218,0.9375
955,362869414,21,1,4,Hôpital Bégin,48.84571672113014,2.4272462725639348,0.8077
1046,535500589,27,34,3,Hôpital Européen Georges Pompidou ,48.83769531916335,2.275374233722687,0.4219
1268,1057765913,30,6,2,Hôpital Necker,48.846043490118454,2.313245013356209,0.7895
185,35137730,43,5,1,Hôpital Pitié Salpêtrière,48.8377016,2.3604946,0.8776
826,213695073,28,0,1,Hôpital Robert Debré,48.88005222200894,2.4008650346327003,0.9655
282,54000539,7,22,4,Hôtel de Ville - Pont-Marie,48.85389964552738,2.356947250664234,0.2121
1198,977206088,6,17,5,Hôtel de Ville d'Argenteuil,48.946504,2.2496396,0.2143
1315,1074187051,13,13,2,Hôtel de Ville d'Asnières sur Seine,48.90999330025577,2.288238108158112,0.4643
523,85147829,14,4,7,Hôtel de Ville de Boulogne Billancourt,48.83495885166784,2.2416803240776066,0.56
1213,1025995767,0,9,9,Hôtel de Ville de Champigny sur Marne,48.813810628405,2.5096759200096,0.0
1314,1074142878,15,0,5,Hôtel de Ville de Chaville,48.80887149094033,2.188134044408798,0.75
930,303452950,11,1,21,Hôtel de Ville de Fontenay-aux-Roses,48.790844603480856,2.2871455930319455,0.3333
1024,484889494,10,2,9,Hôtel de Ville de Levallois Perret,48.89314451997415,2.2888818383216862,0.4762
1181,653200142,31,1,5,Hôtel de Ville de Nanterre,48.892371898250424,2.205548956990242,0.8378
1178,653194214,14,6,0,Hôtel de Ville de Rueil-Malmaison,48.878194,2.181724,0.7
1388,11218807773,31,8,8,Hôtel de Ville de Saint-Ouen,48.911380185786,2.3340076807601,0.6596
1255,1057366813,26,3,1,Hôtel de Ville de Sèvres,48.824363561288756,2.2131047397851944,0.8667
626,102751453,24,0,0,Hôtel de Ville de Vincennes,48.84827609706963,2.4398955702781677,1.0
850,214109662,20,0,0,Hôtel de ville de Fontenay-sous-Bois,48.84949749106274,2.4750164151191716,1.0
518,85118872,34,0,4,Indre - Prairies,48.86254398506782,2.403290458023548,0.8947
4,6296,7,6,3,Institut de France,48.85761567856468,2.335831353037739,0.4375
659,128882438,1,32,3,Institut du Monde Arabe - Saint-Germain,48.849063299501,2.3558086529374,0.0278
988,437597018,29,0,0,Invalides - Duroc,48.847792473295,2.3161920905113,1.0
990,439750210,22,1,1,Italie - Jardin Joan Miro,48.81990914045756,2.3592948541045193,0.9167
1349,2515085147,3,8,9,Italie - Tolbiac,48.82557229464416,2.3576171323657036,0.15
148,27415128,14,3,3,Ivry - Baudricourt,48.824695995415006,2.363106073577468,0.7
978,409364001,12,5,1,Ivry - Simone Weil,48.823283932030755,2.3659095168113713,0.6667
540,97705710,22,3,11,Jacquard - Ternaux ,48.8646605,2.373162,0.6111
377,66491370,21,3,3,Jacques Callot - Mazarine,48.85528017533187,2.337574325501919,0.7778
489,82565383,34,2,8,Jacques Kellner - Saint-Ouen,48.895809485802886,2.327897409164145,0.7727
123,27363504,28,0,1,Jacquier - Didot,48.82953336292279,2.318179272115231,0.9655
493,82569809,17,3,1,Jardin Marguerite Long,48.8816985773914,2.2836575657129288,0.8095
1010,470807791,12,3,16,Jardin d'Acclimatation,48.878772242510465,2.270772233605385,0.3871
608,102326776,19,1,3,Jardin de l'Hospice Debrousse,48.861451061938,2.405686005949974,0.8261
254,43247025,15,0,5,Jardins d'Eole,48.8869703,2.3668488,0.75
155,27415246,1,40,2,Javel - André Citroën,48.846276485475,2.2786368057131767,0.0233
542,98132679,40,4,5,Jean Bleuzen - Square du 11 Novembre,48.8232579,2.2965213,0.8163
121,27363397,11,2,6,Jean Bologne - Passy,48.857566889784465,2.280027395306772,0.5789
177,34235349,23,3,2,Jean Calvin - Tournefort,48.84158856925782,2.348489575088024,0.8214
965,378648513,30,2,2,Jean Colly - Tolbiac,48.827817291597846,2.3705490678548813,0.8824
536,95927849,12,9,2,Jean Jaurès - Jean Baptiste Clément ,48.84576261454011,2.2369650006294255,0.5217
443,81212212,23,0,1,Jean Jaurès - Jules Jacquemin,48.88433053604843,2.4082902455152104,0.9583
846,213999554,14,2,3,Jean Jaurès - Ouvrières Pivéreuses,48.91042343752563,2.399576604366303,0.7368
1371,2705356759,24,2,2,Jean Jaurès - Paul Lafargue,48.884933177666,2.2484488785267,0.8571
1397,11851012506,3,28,3,Jean Jaurès - Place du Dr Roux,48.927567032796,2.2947337017374,0.0882
173,27415736,22,0,5,Jean Jaurès - Presles,48.90713441498779,2.396005728053061,0.8148
207,37952191,24,4,0,Jean Jaurès - Reine,48.84009622558849,2.239872515201569,0.8571
172,27415665,33,4,4,Jean Jaurès - Salvador Allende,48.821475594736775,2.3026576638221745,0.8049
886,244400797,20,0,1,Jean Lolive - Parc Stalingrad,48.89206174403158,2.4091735482215886,0.9524
745,210090269,46,9,7,Jean Macé - Faidherbe,48.85337548425958,2.3828620836138725,0.7419
1061,583171360,29,0,0,Jean Marin Naudin - Stalingrad,48.805713897355,2.3202023282647,1.0
297,54000555,10,7,15,Jean Mermoz - Champs-Elysées,48.869689856852,2.3107324540615,0.3125
198,37504995,23,4,1,Jean Monnet - Iles,48.823393984057304,2.2497073194874866,0.8214
1019,478593396,16,2,2,Jean Moulin - Paul Doumer,48.8622179854695,2.45533436536789,0.8
584,101491821,25,3,11,Jean Moulin - Place Victor et Hélène Basch,48.82764910241,2.3261967301369,0.641
1042,518825709,18,3,0,Jean Oestreicher - Porte de Champerret,48.88655580065981,2.288640439510346,0.8571
339,54000610,50,7,9,Jean de la Fontaine - Boulainvilliers,48.85264791461651,2.2758664190769196,0.7576
1176,653190279,6,12,2,Jean-Baptiste Charcot - Sainte-Geneviève,48.90310883721567,2.278892956674099,0.3
29,36298,13,1,2,Jean-Baptiste Pigalle - La Bruyere,48.87939826447722,2.333709173337285,0.8125
333,54000601,14,1,2,Jean-François Lépine - Stephenson,48.88611466796807,2.356855627529275,0.8235
653,128834707,10,0,11,Jean-Jacques Rousseau - Deux Ecus,48.86297805972131,2.3414635285735126,0.4762
778,210745258,39,2,3,Jean-Pierre Timbaud - Vaucouleurs,48.867937,2.377885,0.8864
492,82568336,24,0,1,Jeanne Hornet - Girardot,48.873802681432146,2.427820265293122,0.96
196,35642049,12,1,1,Jemmapes - Ecluses Saint-Martin,48.87748519186726,2.3660067468881607,0.8571
1335,1599921040,27,1,1,Jessaint - Marx Dormoy,48.88484543106364,2.358930408954621,0.931
1090,653035822,19,5,3,Jeûneurs - Mulhouse,48.868997,2.346925,0.7037
1163,653150828,13,4,3,Joffre - Aigle,48.904033,2.245096,0.65
703,129088667,35,3,2,Jonquière - Docteur Paul Brousse,48.894799816683985,2.318705212173216,0.875
1196,963786819,26,2,2,Jonquoy - Didot,48.82890454823947,2.31648076325655,0.8667
712,129106450,34,0,2,Joseph Dijon - Ornano,48.89374453351521,2.3476678133010864,0.9444
588,101743895,55,3,6,Joseph Liouville - Croix Nivert,48.844835471244416,2.297508493065834,0.8594
537,96512532,3,14,0,Joseph Sansboeuf - Saint Lazare,48.87531563065266,2.3229019716382027,0.1765
222,39565873,19,4,4,Jouffroy d'Abbans - Malesherbes,48.8850134,2.3070717,0.7037
328,54000596,32,0,1,Jouffroy d'Abbans - Villiers,48.88421554703737,2.3056533560156827,0.9697
300,54000559,37,1,1,Jouffroy d'Abbans - Wagram,48.881973298351625,2.301132157444954,0.9487
167,27415466,20,0,1,Jourdain - Place des Grandes Rigoles,48.87403113727167,2.38959476351738,0.9524
1292,1062874070,36,0,2,Jourdan - Cité Universitaire,48.819897343156676,2.3397007964124366,0.9474
1116,653081846,28,0,2,Jourdan - Monticelli,48.822032,2.329095,0.9333
513,85002689,45,9,4,Jourdan - Stade Charléty,48.819428333369,2.3433353751898,0.7759
263,49368561,44,5,5,Jules Ferry - Faubourg du Temple Paris,48.868397,2.3678933,0.8148
1006,462875227,22,2,2,Jules Guesde - Alsace,48.89056627550627,2.295077741146088,0.8462
1185,653217067,12,1,6,Jules Guesde - Laennec,48.87628983900398,2.5006942078471184,0.6316
1034,499303158,0,27,3,Jules Guesde - Pont du Port à l'Anglais,48.79628807093802,2.417212128639221,0.0
1242,1057210479,8,7,0,Jules Guesdes - Carnot,48.93828169931872,2.3508992046117783,0.5333
1234,1057072168,17,0,7,Jules Guesdes - Général de Gaulle,48.81930581291959,2.278934195637703,0.7083
73,15308712,19,1,1,Jules Vallès - Charonne,48.85428437993525,2.384767457842827,0.9048
286,54000544,3,29,7,Jussieu - Fossés Saint-Bernard,48.84718551002347,2.3534858599305153,0.0769
1097,653048150,30,1,5,Jussieu - Guy de la Brosse,48.845665,2.355653,0.8333
1337,1765749389,16,0,0,Karl Marx,48.784527937293184,2.3646667979455587,1.0
60,13283986,32,0,0,Keller - La Roquette,48.8555508,2.3752778,1.0
614,102336814,3,16,1,Kléber - Gouverneur Général Eboué,48.826885843069796,2.2723413258790965,0.15
1297,1063012692,17,1,1,Kléber - National,48.906333898712234,2.2393910586833954,0.8947
1175,653190196,32,1,3,LCL Campus - Place Oscar Niemeyer,48.805342480621576,2.363983690738678,0.8889
986,428088564,23,0,1,La Jarry - Place Diderot,48.849726940367326,2.452013790607453,0.9583
39,38192,14,11,9,La Motte-Picquet - Grenelle,48.84858321339195,2.299347817897797,0.4118
1033,494183852,34,1,4,La Motte-Picquet - La Tour Maubourg,48.8572316,2.3094136,0.8718
1224,1056965116,36,10,4,Lac Daumesnil - Saint-Maurice,48.82774555743318,2.4183654785156246,0.72
224,39626277,2,2,10,Lacuée - Lyon,48.849268481958,2.3704585433006,0.1429
508,84961467,44,2,7,Lacépède - Linné,48.8437035476636,2.354651279747486,0.8302
755,210403080,15,2,4,Lacépède - Monge,48.84389286531899,2.3519663885235786,0.7143
117,27363323,29,3,1,Laffitte - Italiens,48.871815737396304,2.337201547845077,0.8788
441,80419347,19,5,2,Lagny - Auguste Blanqui,48.84922568052601,2.4218603968620305,0.7308
853,214122655,25,3,3,Lagny - Joffre,48.84930687084088,2.417949736118317,0.8065
623,102747146,21,0,4,Lagny - Victor Basch,48.84884147189881,2.426325418925233,0.84
381,66491378,8,43,2,Lakanal - Commerce,48.84442462786544,2.294059172272682,0.1509
247,42908639,27,2,0,Lallier - Trudaine ,48.88109246617963,2.3408224806189537,0.931
1312,1074060095,24,2,2,Lally-Tollendal - Armand Carrel,48.88270066221072,2.374717555940151,0.8571
302,54000561,19,7,3,Lamartine - Faubourg Montmartre,48.87661398289084,2.339765690267086,0.6552
859,216039437,24,1,0,Lamennais - Washington ,48.87352990026496,2.303444892168045,0.96
1130,653102462,19,21,2,Lampes,48.81152481985875,2.4017931148409843,0.4524
137,27414713,26,1,2,Landy - Heurtault,48.915096534520316,2.375951372087002,0.8966
615,102338493,25,1,3,Larmeroux - Baudelaire,48.816939911292,2.2809894804846,0.8621
763,210570888,21,0,1,Las Cases - Bourgogne,48.85909110474066,2.3185685276985173,0.9545
894,255207155,17,0,2,Lassus - Delouvain,48.87550448459959,2.3890327325518528,0.8947
338,54000609,27,2,5,Laumière - Petit,48.88467368538326,2.380039058625698,0.7941
805,213686196,18,0,1,Lauriston - Copernic,48.86926,2.289918,0.9474
1207,1002738770,11,12,3,Lavandieres Sainte Opportune - Rivoli,48.859279702476,2.3466217517853,0.4231
637,124167835,11,3,4,Lavoisier - Missak Manouchian,48.86286468896063,2.495676465332508,0.6111
56,13105968,19,0,2,Le Brix et Mesmin - Jourdan,48.82234096593411,2.327861653302471,0.9048
398,66491398,38,7,3,Le Brun - Gobelins,48.835092787823875,2.353468135133752,0.7917
524,85152599,36,8,2,Le Corbusier - Jean Jaurès,48.83780830557548,2.2408381104469304,0.7826
191,35380305,21,5,8,Le Goff - Gay-Lussac,48.8461024009786,2.3412207886576653,0.6176
46,52453,25,0,0,Le Vau - Maurice Bertaux,48.86803439043193,2.411030612453627,1.0
1156,653139897,21,3,3,Lebrun - Colonel Fabien ,48.78266870733145,2.381317801773548,0.7778
594,101759167,33,9,2,Lecourbe - Convention,48.83923319241899,2.2915197908878326,0.75
798,213683101,11,3,2,Lecourbe - Jean Maridor,48.83796366147599,2.2877392172813416,0.6875
984,426772876,17,10,3,Ledru-Rollin - Charonne,48.85345855607243,2.3772463581947094,0.5667
458,82404497,25,4,7,Ledru-Rollin - Place du Père Chaillet,48.856433706943704,2.379020587761426,0.6944
702,129087587,34,2,3,Legendre - Clichy,48.88896161855884,2.322528975094376,0.8718
274,50156117,20,2,0,Legendre - Dulong,48.885325169402904,2.316423766314984,0.9091
272,49829553,23,4,2,Legendre - Nollet,48.887742186754224,2.320293079881375,0.7931
383,66491381,29,1,2,Leibniz - Jean Dollfus,48.896328348515986,2.333390423834684,0.9062
331,54000599,23,0,1,Lemercier - Cardinet,48.890097168851746,2.317377626895905,0.9583
821,213692714,22,0,2,Lepic - Armée d'Orient,48.88753640381415,2.334307730197907,0.9167
647,125811629,16,9,15,Leredde - Tolbiac,48.82887629664,2.3744382709265,0.4
1169,653165196,17,6,2,Les Blagis,48.785205,2.302526,0.68
932,311153993,7,16,8,Les Halles - Saint-Eustache,48.86362695901683,2.342623919248581,0.2258
1217,1036199130,9,6,5,Les Juilliottes,48.8043072,2.4437362,0.45
1204,990000217,4,10,2,Les Planètes ,48.8099849920804,2.4580853059887886,0.25
187,35149611,9,2,2,Liard - Amiral Mouchez,48.8214169,2.342167,0.6923
1191,907054879,4,15,1,Liberté - Vert-de-Maisons,48.79014780960843,2.43286281824112,0.2
1190,875078767,20,0,0,Lieutenant Chauré - Etienne Marey,48.86746195408435,2.405970990657807,1.0
453,82379648,32,0,1,Lisbonne - Monceau,48.87745567681383,2.309694221419506,0.9697
243,42603855,16,0,1,Liège - Moscou,48.8795431,2.3264628,0.9412
543,98187918,15,19,23,Lobau - Hôtel de Ville,48.8562118,2.3532536,0.2632
564,100905057,21,0,1,Londres - Amsterdam,48.878034461503965,2.326483540969424,0.9545
768,210582231,25,0,0,Londres - Place d'Estienne d'Orves,48.876693805756986,2.3305362090468407,1.0
325,54000593,27,4,7,Longchamp - Place d'Iéna,48.86491723343388,2.2926748171448708,0.7105
437,80077998,13,3,3,Lorraine - Jean Jaurès,48.8863865,2.3825772,0.6842
645,125542925,30,7,0,Louis Blanc - Aqueduc,48.88203018259946,2.3635615780949593,0.8108
104,27362949,27,2,2,Louis Blanc - Jemmapes,48.879330755297346,2.368448562920093,0.871
139,27414902,14,1,3,Louis Blanc - La Chapelle,48.884008964514,2.3599335551262,0.7778
166,27415444,26,1,0,Louis Ganne - Davout,48.86338720692607,2.409725748002529,0.963
1148,653132534,20,1,4,Louis Lejeune - Barbès,48.81807418981508,2.3267009854316716,0.8
888,245187072,18,0,2,Louis Lumière - Porte de Bagnolet,48.86431136000005,2.4105210229754443,0.9
49,52518,21,1,0,Louis Lumière.,48.86216198070008,2.41112578185621,0.9545
618,102343591,25,0,5,Louis Pasteur - Albert Petit,48.796261,2.317289,0.8333
1150,653134004,23,0,3,Louis Rolland - République,48.81710889740748,2.3193106434955717,0.8846
1120,653086121,30,0,3,Louis Xavier de Ricard - Ancienne Mairie,48.84629899065091,2.472420372068882,0.9091
372,66489651,7,21,4,Louis le Grand - Italiens,48.870508937203915,2.334054461939329,0.2188
598,102289046,2,13,7,Lourmel - Marie Skobtsov,48.844974,2.287283,0.0909
1070,596872103,26,0,4,Lucie Aubrac - Fort,48.818144834008976,2.271184623241425,0.8667
1080,632007124,26,1,8,Lucie Aubrac - Franklin,48.86223916006812,2.4435862898826604,0.7429
1117,653083263,28,9,2,Lucien Bossoutrot - Général Martial Vallin,48.836956046311,2.2741072252393,0.7179
1162,653147618,2,13,11,Lucien Lanternier - Le Luth,48.93159430558871,2.2889783978462224,0.0769
985,427678168,36,6,3,Lucien Sampaix - Récollets,48.874330377560476,2.3621229082345963,0.8
709,129096696,6,4,2,Léon - Doudeauville,48.88832421845225,2.353573372638597,0.5
568,100921894,12,5,2,Léon Frot - Charonne,48.854963800335234,2.387217085372007,0.6316
379,66491372,6,39,14,M.- A. Lagroua Weill-Hallé -  F. Dolto,48.828595283857425,2.380220606266108,0.1017
330,54000598,23,0,1,Mac-Mahon - Brey,48.877532084130166,2.294512536052928,0.9583
827,213699079,67,0,0,Macdonald - Césaria Evora,48.89883,2.37933,1.0
572,100934967,25,5,3,Madagascar - Meuniers,48.83460464474706,2.3970650508999825,0.7576
352,54000626,10,1,8,Madame de Sanzillon - Mozart,48.90379820774301,2.3187401890754704,0.5263
356,54000630,19,5,1,Madeleine Michelis - Roule,48.88260431301364,2.2773634269833565,0.76
1363,2515855808,4,10,17,Madeleine Vionnet,48.902519074064,2.3740895837545,0.129
1334,1599896463,13,3,4,Magenta - Chabrol,48.876495350882045,2.3560990020632744,0.65
869,221038698,22,1,1,Mahatma Gandhi,48.876356,2.264205,0.9167
128,27369223,4,3,10,Maine - Antoine Bourdelle,48.84308531746595,2.320263946784738,0.2353
471,82440673,43,2,3,Maine - Jean Zay,48.837925263897674,2.3225428909063344,0.8958
126,27364642,23,4,0,Maine - Liancourt,48.835064363954,2.323731449973991,0.8519
498,82574198,2,35,4,Mairie d'Issy,48.8237677924683,2.27231115102768,0.0488
532,94250567,4,43,5,Mairie d'Ivry-sur-Seine,48.81057120969284,2.3842826485633855,0.0769
627,102752610,23,0,4,Mairie de Bagnolet,48.868421318555306,2.417958788573742,0.8519
1153,653137566,27,1,3,Mairie de Clamart,48.800612,2.262151,0.871
435,78348185,15,27,2,Mairie de Clichy,48.903653634661,2.3059353232384,0.3409
1298,1063017616,14,3,5,Mairie de La Garenne Colombes,48.90663823468682,2.24679596722126,0.6364
1188,818302209,41,2,8,Mairie de Montreuil,48.86131452758348,2.440614402294159,0.8039
983,422639331,21,6,3,Mairie de Neuilly sur Seine,48.88494728765838,2.2677031159400944,0.7
735,135806005,15,0,1,Mairie de Romainville,48.885109,2.435679,0.9375
1186,653222953,14,3,9,Mairie de Rosny-sous-Bois,48.871256519012,2.4865807592869,0.5385
980,417623119,18,1,1,Mairie de quartier du Plateau - Mont-Valérien,48.8799933,2.2072437,0.9
962,376526598,47,0,0,Mairie des Lilas,48.8792834,2.4160182,1.0
456,82396562,15,2,1,Mairie du 10ème,48.872089449907,2.3575825989246,0.8333
216,39254792,42,3,4,Mairie du 11ème,48.858925,2.3789759,0.8571
199,37815204,0,25,1,Mairie du 12ème,48.840855311763,2.3875549435616,0.0
319,54000587,28,1,0,Mairie du 14ème,48.83254578123,2.3254923149943,0.9655
233,41523981,24,5,2,Mairie du 15ème,48.8417762,2.2986539,0.7742
195,35600927,34,0,1,Mairie du 16ème,48.863936848471994,2.2765953093767166,0.9714
335,54000605,30,3,2,Mairie du 18ème,48.892939296937605,2.3445510864257812,0.8571
363,54001190,19,4,3,Mairie du 19ème,48.88256264247959,2.3812624812126164,0.7308
349,54000623,25,0,1,Mairie du 20ème,48.865302324275,2.3990669846535,0.9615
1,6293,27,1,0,Mairie du 2ème,48.8672190355135,2.3404625437747044,0.9643
281,54000538,2,26,3,Mairie du 3ème,48.86446178139141,2.361762821674347,0.0645
551,100767550,7,30,4,Mairie du 4ème,48.85594991049653,2.3563823103904724,0.1707
444,82253759,25,0,2,Mairie du 7ème,48.8577967,2.3192664,0.9259
268,49498164,11,3,0,Mairie du 8ème ,48.877932,2.318264,0.7857
23,30550,18,2,2,Mairie du 9ème,48.87326713758289,2.340753448052758,0.8182
440,80298493,18,3,3,Mairie du Kremlin-Bicêtre,48.81191981537702,2.3570189997553825,0.75
81,15397468,3,33,11,Maison de Radio - France,48.85132886434057,2.277785539627075,0.0638
931,308082350,14,0,2,Malakoff - Place de la Porte Maillot,48.876733496637506,2.2834577411413193,0.875
937,315022587,12,51,16,Malesherbes - Place de la Madeleine,48.87040602848252,2.323243509807989,0.1519
606,102323152,19,0,0,Manin - Carrières d'Amérique,48.88467214209463,2.3919698596000676,1.0
182,35089539,17,4,1,Manin - Crimée,48.8831217743719,2.3863670602440834,0.7727
643,125370566,14,1,3,Manin - Secrétan,48.8791665,2.3787959,0.7778
340,54000611,21,0,1,Manin - Simon Bolivar,48.87649965412676,2.379407362599104,0.9545
1140,653122771,2,19,2,Marc Sangnier - Division Leclerc,48.78599652305309,2.329955510795116,0.087
127,27364743,19,0,2,Marc Sangnier - Porte de Vanves,48.825218683556734,2.3107116669416428,0.9048
400,66491402,29,1,4,Marcadet - Barbès,48.89045112096476,2.349057392968696,0.8529
649,125918662,18,1,2,Marcadet - Ramey,48.890875,2.3449019,0.8571
669,128940135,18,0,3,Marceau - Chaillot,48.86883394989261,2.2989967837929726,0.8571
174,28233012,13,10,4,Marceau - Président Wilson,48.8652359,2.3002513,0.4815
1393,11437961617,2,12,10,Marceau Delorme - Pierre Brossolette,48.91206062860357,2.295897423568745,0.0833
1417,14623073464,39,5,1,Marcel Monge - Marcel Dassault,48.86096384533371,2.2246733296048142,0.8667
1179,653197206,20,1,3,Marcel Pourtout - Édouard Manet ,48.87555620763429,2.1655967831611638,0.8333
725,129142199,25,4,1,Marcel Yol - Jullien,48.82537611802588,2.287235018058929,0.8333
610,102329800,18,7,1,Marcelin Berthelot,48.8415473058801,2.233161628246308,0.6923
1007,463297497,18,0,0,Marcelle - Thalie,48.8835462,2.4137883,1.0
1221,1056715831,0,16,5,Marché Saint-Germain,48.85165625855281,2.335500307381153,0.0
75,15309045,14,0,1,Marché Saint-Quentin,48.877356057652264,2.354511445637388,0.9333
370,63498079,20,1,4,Marché Secrétan,48.88125496379482,2.373463287949562,0.8
2,6294,5,7,7,Marché aux fleurs,48.85525811539143,2.3473754525184636,0.2632
483,82551956,24,4,3,Marché d'Auteuil,48.84842761367387,2.265253821160005,0.7742
1270,1057774603,30,1,1,Marie-Georges Picquart - Pereire,48.88863669349711,2.3111706599593163,0.9375
295,54000553,31,3,0,Marignan - Champs-Elysées,48.869495661232,2.3066138139003,0.9118
1122,653087914,17,4,5,Marne - Charles de Gaulle,48.815071719544434,2.4121668934822087,0.6538
1064,586539770,18,1,3,Marne - Germain Dardan,48.81154270401601,2.303070724010468,0.8182
682,129032910,42,8,1,Marseille - Beaurepaire,48.871624306962985,2.3639265082738348,0.8235
1422,15550433574,29,5,2,Martyrs de Châteaubriant - Jean Grandel,48.951432,2.211214,0.8056
1166,653155159,17,0,4,Marx Dormoy - Château Sainte-Barbe,48.791782341055324,2.297856844961643,0.8095
1118,653083675,20,0,0,Maréchal Joffre - Verdun,48.85385,2.470307,1.0
1428,16134083337,27,0,3,Maréchal Leclerc de Hauteclocque - Marché Buzenval,48.858446,2.192077,0.9
434,78124875,46,2,6,Mathis - Flandre,48.8906429898976,2.3762554675340652,0.8519
885,237624030,35,0,1,Mathurins - Auber,48.872988840744,2.3294984212276,0.9722
1313,1074095810,21,0,1,Maurice Payret-Dortail,48.87811957063342,2.2233625128865246,0.9545
1328,1237624420,26,3,1,Maurice d'Ocagne - General Maudhuy,48.82414282524159,2.3158789426088333,0.8667
1279,1062256852,4,1,15,Maxime Gorki - Louis Aragon,48.78909814728443,2.368387877941132,0.2
1177,653193536,12,0,8,Maxime Gorki - Paul Vaillant-Couturier,48.79673508795443,2.3683342337608337,0.6
775,210738704,19,0,3,Mazagran - Bonne Nouvelle,48.870047123655254,2.351124845445156,0.8636
1112,653079135,10,2,3,Mazagran - Pierre de Coubertin,48.816218640260445,2.344226874411106,0.6667
907,266052390,20,1,6,Melun - Jean Jaurès,48.8837796723475,2.376477420330048,0.7407
631,120827885,8,2,2,Messine - Place Du Pérou,48.875448033960744,2.315508019010038,0.6667
867,221032834,39,2,6,Metz - Faubourg Saint-Denis,48.870893,2.353521,0.8298
648,125881065,17,6,9,Metz - Marne,48.891163,2.3865705,0.5312
159,27415302,15,7,4,Michel-Ange - Parent de Rosan,48.840579923690115,2.2584119439125065,0.5769
875,224589573,18,0,0,Michelet - Assas,48.84274150283194,2.335021197795868,1.0
1100,653055097,21,1,0,Milton - Manuel,48.878249,2.341181,0.9545
241,42566291,24,7,2,Miromesnil - La Boétie,48.87372241291653,2.315848097205162,0.7273
808,213687140,21,7,5,Molitor - Chardon-Lagache,48.84520880183234,2.2656840831041336,0.6364
516,85031184,41,4,6,Molitor - Michel-Ange,48.845182081538034,2.26211277356597,0.8039
927,301841024,23,2,3,Molière - République,48.81111581390707,2.3145738624448158,0.8214
244,42720305,35,1,1,Monceau - Malesherbes ,48.8795079,2.3145456,0.9459
677,129021753,14,1,2,Moncey - Blanche,48.88006587474148,2.3310810327529907,0.8235
998,452920451,21,0,2,Mont Valérien - Michel Salles,48.8561915,2.2152966,0.913
143,27414945,4,7,2,Montgallet - Charenton,48.842647778701,2.3861649278137,0.3077
939,323486248,6,5,5,Montgallet - Reuilly,48.844291,2.3896481,0.375
549,100759356,2,4,9,Montmartre - Etienne Marcel,48.865021945810085,2.345068440144759,0.1333
376,66491369,14,13,18,Montparnasse -  Square Ozanam,48.843310567822,2.3265242949128,0.3111
1035,501318622,18,0,3,Montreuil - Gonnet,48.850500564921,2.3890856287864,0.8571
624,102748267,15,1,7,Montreuil - République,48.85026349463687,2.4345204234123234,0.6522
306,54000567,28,1,3,Montreuil - Voltaire,48.850507011842,2.3930755582745,0.875
722,129134084,9,8,8,Morice - Général Leclerc,48.90245471981591,2.3128929734230046,0.36
797,213682736,46,2,3,Morillons - Dantzig,48.83310149953933,2.299380004405976,0.902
1220,1055553396,0,12,3,Mornay - Sully,48.84970399548416,2.364460788667202,0.0
1431,16206842336,4,4,22,Moscou - Edouard Vaillant,48.90755810177,2.4689837335263,0.1333
470,82436057,20,1,0,Moulin de la Pointe,48.82092946051445,2.3563179373741145,0.9524
693,129067920,36,0,1,Mouton Duvernet - Général Leclerc,48.831632518292565,2.3293121159076686,0.973
80,15387809,56,1,3,Mozart - Jasmin,48.85286124871689,2.268483570651513,0.9333
1353,2515636592,6,6,4,Mstislav Rostropovitch - Berthier,48.892120821173975,2.309234105050564,0.375
736,201923447,8,28,1,Murat - Porte de Saint-Cloud,48.83750862621299,2.2577651962637906,0.2162
559,100863462,49,1,11,Musée d'Orsay,48.85972615790874,2.325860448181629,0.8033
200,37815993,25,7,4,Mutualité,48.848225572724,2.3502873256803,0.6944
83,15409531,16,0,0,Méchain - Faubourg Saint-Jacques,48.83586772099485,2.33798034198275,1.0
461,82413301,27,3,9,Ménilmontant - Oberkampf,48.866617658681,2.3830134404158,0.6923
716,129119449,19,0,0,Ménilmontant - Pelleport,48.87068263384462,2.398959602331646,1.0
347,54000621,46,4,5,Ménilmontant - Père Lachaise,48.863287291502,2.3869940266013,0.8364
866,220726050,43,11,1,Mézières - Rennes ,48.85023459321703,2.3303819820284843,0.7818
1357,2515701705,15,2,3,Mûriers - Père Lachaise,48.864130509668044,2.39164982067019,0.75
1367,2515976231,3,9,7,Nanterre - Université,48.901365,2.212693,0.1579
509,84966359,25,1,0,Naples - Rome,48.879960700846226,2.321358695626259,0.9615
150,27415169,20,2,1,Nationale - Marcel Duchamp,48.82463749337136,2.3678014799952507,0.8696
721,129132870,14,7,2,Nationale - Place Jules Guesde,48.82753962462998,2.2416052222251897,0.6087
66,15153595,31,2,0,Nationale - Vincent Auriol,48.83252708397293,2.362354410392119,0.9394
327,54000595,35,1,0,Navier - Epinettes,48.89587780769155,2.3226776719093327,0.9722
1146,653129435,14,0,2,Neuilly - Petit,48.898965361341254,2.29627937078476,0.875
1209,1020700136,7,9,2,Neuve Saint-Pierre - Beautreillis,48.85355351439652,2.3639122769236565,0.3889
1212,1023083417,13,1,2,Ney - Charles Hermite,48.89874803977525,2.3645754531025887,0.8125
1038,507934805,19,2,2,Ney - Porte de Clignancourt ,48.8978867,2.3458001,0.8261
1025,486750405,20,0,2,Ney - Porte de Montmartre,48.897918,2.3364872,0.9091
1286,1062802530,20,2,1,Niger - Soult,48.84369906369085,2.410361237220498,0.8696
840,213945171,18,0,3,Noisy le Sec - Jean-Baptiste Clément,48.87451538963655,2.415283620357514,0.8571
135,27414578,17,1,1,Notre-Dame-des-Champs - Stanislas,48.84479928858768,2.329337755887181,0.8947
1379,10647548670,17,1,4,Nungesser - Santé,48.852335,2.448967,0.7727
232,41498023,11,7,4,Oberkampf - République,48.865316087070475,2.3761147849099955,0.5
877,230873471,17,1,3,Octave Feuillet - Albéric Magnard,48.86106902949534,2.2730283066630363,0.8095
664,128915891,0,21,7,Octave Gréard - Tour Eiffel,48.856502977696,2.2931787543289,0.0
253,43219958,39,0,0,Odessa - Départ,48.842885590081,2.3244281485677,1.0
1011,471094898,17,6,0,Olivier de Serres - Leriche,48.83460221715206,2.2957482933998112,0.7391
580,101022698,32,1,3,Olympiades,48.826764665199,2.3650860786438,0.8889
916,276989966,9,3,1,Oratoire - Rivoli,48.861342760889,2.3400047421455,0.6923
334,54000604,31,2,2,Ordener - Poissonniers,48.891213890844654,2.351288666219873,0.8857
168,27415469,22,1,0,Orteaux - Mouraud,48.85558642847872,2.408762907764669,0.9565
63,13497763,16,4,3,Ouest - Château ,48.83617286014242,2.319392143923804,0.6957
1433,16210512714,20,4,4,Pablo Picasso - Maurice Thorez,48.906887812943,2.4489325365198,0.7143
1133,653107480,21,1,0,Paganini - Davout,48.85135,2.412021,0.9545
1172,653180903,31,1,2,Paix - Verdun,48.900504,2.261173,0.9118
442,81081358,37,0,2,Pajol - Place Herbert,48.8927825,2.3635598,0.9487
217,39256416,39,2,4,Pajol - Riquet ,48.88960028134536,2.3628534749150276,0.8667
899,259977414,14,4,3,Palais des Sports,48.833468517426,2.2858720645308,0.6667
754,210399835,33,2,3,Panthéon - Valette,48.84702057165222,2.3464982619671075,0.8684
304,54000564,24,0,2,Paradis - Hauteville,48.874999954666755,2.3522757401923404,0.9231
287,54000545,6,51,4,Parc André Citroën,48.840639944296655,2.2780618071556096,0.0984
1343,1987547083,23,1,6,Parc Départemental des Hautes-Bruyères,48.793457901398945,2.3509012162685394,0.7667
734,131908132,14,0,3,Parc Eli Lotar,48.91844993053703,2.3727085813879967,0.8235
1320,1074352578,17,5,2,Parc Floral du Bel Air,48.839285711865735,2.438560165464878,0.7083
696,129078200,23,1,5,Parc Georges Brassens - Brancion,48.83227829269761,2.3022570088505745,0.7931
88,15461933,15,2,1,Parc Monceau,48.88107791412864,2.3095492646098137,0.8333
1182,653203262,5,9,13,Parc Pierre Lagravère,48.92650488131725,2.239069678491417,0.1852
170,27415512,23,5,5,Parc Roger Salengro,48.905303858642,2.31055945158,0.697
804,213685863,8,37,7,Parc Suzanne Lenglen,48.833250690537874,2.2765403240919113,0.1538
417,74620630,24,0,1,Parc de Belleville - Julien Lacroix,48.8703459,2.3842214,0.96
125,27364581,23,1,1,Parc de Choisy,48.828156251575,2.3585135329033,0.92
1218,1036226943,21,2,8,Parc de Sceaux - Centre-Ville,48.7769529826096,2.2957214713096623,0.6774
1411,12959947458,21,1,1,Parc des Pierrettes,48.7973062,2.2909969,0.913
728,129145892,31,3,14,Paris - Désiré Préaux,48.85742876694898,2.4323049187660217,0.6458
727,129144878,19,4,3,Paris - Emile Zola,48.854898095789295,2.4186685681343083,0.7308
960,369011098,17,2,0,Paris - Laitières,48.84630274151258,2.4207553267478947,0.8947
678,129023855,19,0,5,Parme - Clichy,48.88126642422664,2.328197093450571,0.7917
361,54001024,47,1,4,Parmentier - Abel Rabaud,48.86921273836114,2.371688821240712,0.9038
566,100910836,40,6,1,Parmentier - Fontaine au Roi,48.86787670551736,2.372705978671471,0.8511
392,66491392,37,4,2,Parmentier - Hôpital Saint-Louis,48.87137987425661,2.369896383666685,0.8605
539,97677210,43,1,3,Parmentier - République ,48.8644954,2.3750124,0.9149
832,213848056,7,40,4,Parvis Corentin Celton,48.82747252522725,2.2784319519996648,0.1373
1300,1063035479,23,0,1,Parvis Robert Schuman - Roger Salengro,48.812657470558754,2.1921751275658607,0.9583
447,82334007,20,18,4,Pascal - Claude Bernard,48.839061952159746,2.3499782010912895,0.4762
197,35816213,22,1,8,Passy - Place du Costa Rica,48.8584893,2.2839655,0.7097
219,39311270,27,4,2,Pasteur - Cotentin,48.8389284,2.316356,0.8182
1365,2515907297,16,2,1,Pasteur - Gambetta,48.84572797384512,2.4236011505126953,0.8421
265,49423507,5,27,17,Pau Casals - Neuve Tolbiac,48.8311602,2.3774395,0.102
694,129069108,28,4,5,Paul Barruel - Vaugirard,48.84014918546239,2.3044332861900334,0.7568
203,37879071,26,3,2,Paul Bodin - Clichy,48.89239614618928,2.317142598330975,0.8387
86,15414455,29,2,3,Paul Doumer - La Tour,48.860116109626574,2.280840481911055,0.8529
848,214097180,17,3,4,Paul Doumer - Stalingrad,48.806518992199,2.3368880152702,0.7083
924,287096529,11,27,4,Paul Klee - Place Augusta Holmes,48.838946417408025,2.3704235663952966,0.2619
1239,1057184567,28,2,4,Paul Signac - Aristide Briand,48.86950262156371,2.4502260982990265,0.8235
1054,568135465,30,6,3,Paul Vaillant Couturier - Chaptal,48.89347957618252,2.277525365352631,0.7692
1152,653135400,0,15,9,Paul Vaillant-Couturier - Gare RER,48.80108159069614,2.402097210288048,0.0
358,54000632,23,10,3,Paul Vaillant-Couturier - Victor Hugo,48.89819702263572,2.293848017974069,0.6389
78,15377776,35,0,0,Paul Valery - Victor Hugo,48.87137406080164,2.2887128591537476,1.0
519,85120104,14,0,0,Pelleport - Belgrand,48.86500081847653,2.403980836377493,1.0
642,124622630,25,3,5,Pelée - Alphonse Baudin,48.8600265,2.3710541,0.7576
599,102304517,41,1,4,Pereire - Place de Wagram,48.887070607581215,2.304111124531457,0.8913
650,126050442,18,1,2,Pereire - Rennequin,48.88364782887555,2.2952447086572647,0.8571
421,74858883,29,2,0,Pereire - Saussure,48.88822907547811,2.310129627585411,0.9355
256,43255030,45,2,1,Pereire - Ternes,48.87973954830735,2.288012132048607,0.9375
515,85015750,37,0,1,Pergolèse - Malakoff,48.87521088779225,2.2842781618237495,0.9737
91,15463487,18,4,4,Pergolèse - Marbeau,48.87356870686902,2.281512522529856,0.6923
992,443153677,1,29,5,Perle - Vieille du Temple,48.8601346,2.3611206,0.0286
318,54000586,32,0,0,Pernety - Raymond Losserand,48.834254627953,2.317609339387,1.0
1424,16043228469,28,0,0,Perrault - Place du Louvre,48.860273568996,2.3412468419093,1.0
1368,2515995748,18,0,4,Pesaro - Préfecture,48.89577046284005,2.223908342421055,0.8182
1355,2515672078,20,1,2,Petit - Georges Thill,48.88603131999171,2.3895753175020222,0.8696
9,6385,20,0,1,Petit - Manin,48.88650687534334,2.3938155401308374,0.9524
238,42499285,34,6,1,Petit Palais,48.8667692,2.3157655,0.8293
33,37521,11,3,1,Petites Ecuries - Faubourg Poissonnière,48.87397217237368,2.348388757504776,0.7333
101,27313492,9,5,11,Petites Ecuries - Faubourg Saint-Denis,48.87287120589831,2.3542150855064397,0.36
646,125623876,13,3,4,Phalsbourg - Villiers,48.88242307900951,2.3090453445911407,0.65
307,54000568,44,1,0,Philippe-Auguste,48.851853488265,2.3932945355773,0.9778
719,129125489,16,0,4,Piat - Parc de Belleville,48.87195626635528,2.384981390278095,0.8
690,129059516,34,9,1,Picpus - Louis Braille,48.839988788912,2.4005256685521,0.7727
201,37848502,22,2,1,Pierre Brossolette - 12 Février 1934,48.8176962416867,2.3076123744249344,0.88
905,265266148,16,3,3,Pierre Brossolette - Adolphe Pinard,48.82177227954821,2.313155829906464,0.7273
420,74805344,24,2,3,Pierre Charron - Champs-Elysées,48.870103359864,2.3043501377106,0.8276
209,38319086,22,7,6,Pierre Demours - Laugier,48.8813072,2.294846,0.6286
93,27033125,5,2,8,Pierre Ginier - Clichy,48.8867667,2.326228,0.3333
720,129130397,17,2,0,Pierre Grenier - Pont de Billancourt,48.8258020742942,2.2487989068031315,0.8947
380,66491373,7,9,3,Pierre Joseph Desault,48.82110230800372,2.378775402903557,0.3684
1372,2820744873,24,4,0,Pierre Larousse - Raymond Losserand,48.83059564231877,2.3119183257222176,0.8571
1141,653123610,33,2,0,Pierre Lefaucheux - Traversière,48.82435208303827,2.2417913004755974,0.9429
186,35147530,19,1,3,Pierre Levée - Fontaine Timbaud,48.86632723374305,2.3711163550615306,0.8261
378,66491371,0,32,1,Pierre Sarrazin - Saint-Michel,48.85090814639774,2.3421307280659676,0.0
872,221047138,10,0,8,Pierre et Marie Curie - Julien Grimau,48.870714014863225,2.424097023904324,0.5556
533,94555589,22,1,4,Pierre et Marie Curie - Maurice Thorez,48.81580226360801,2.376804985105991,0.8148
726,129143598,24,3,0,Pierret - Madrid,48.882976576876565,2.260125767248034,0.8889
780,210747224,4,43,1,Pirogues de Bercy - Libourne,48.832308,2.38637,0.0833
789,213676825,40,2,7,Pitié-Salpêtrière,48.83748810318667,2.365213818848133,0.8163
893,254224239,47,5,7,Place Adolphe Cherioux - Vaugirard,48.83959442800459,2.3010657727718353,0.7966
1254,1057360420,24,0,3,Place Aimé Césaire,48.783194713067815,2.2429127991199493,0.8889
112,27363187,40,1,4,Place Albert Kahn,48.8957969797804,2.345585584134864,0.8889
873,221094844,3,17,1,Place Alphonse Deville,48.850188262662,2.3275961726904,0.1429
1375,3906215030,33,1,4,Place Amédée Gordini - Lefebvre,48.83061737745,2.2920634208276,0.8684
746,210328645,19,0,0,Place André Malraux,48.863925158727,2.3356226831675,1.0
385,66491384,15,9,11,Place Aristide Briand,48.82189236575831,2.413003742694855,0.4286
179,34742973,1,27,4,Place Balard,48.836395736424,2.2784192115068,0.0312
861,217235307,12,6,6,Place Carnot,48.85593932186797,2.441531717777252,0.5
953,357491025,20,0,2,Place Centrale,48.78740167690531,2.2278830409049992,0.9091
180,34836174,29,2,0,Place Charles Digeon,48.84354203133597,2.418427169322968,0.9355
1266,1057753858,5,27,4,Place Charles Michels,48.846401,2.28502,0.1389
968,384370499,20,2,3,Place Charles Vallin,48.835523812041,2.3025986552238,0.8
1396,11438171152,17,0,7,Place Charles de Gaulle,48.82654572004,2.1892588736088,0.7083
609,102328355,16,3,0,Place Denfert-Rochereau,48.843252536286684,2.245987951755524,0.8421
900,261987383,21,1,4,Place Du Général De Gaulle,48.8687591,2.4329931,0.8077
908,266422568,2,16,4,Place Edmond Michelet,48.860134890542,2.3500636965036,0.0909
590,101748685,10,26,7,Place Etienne Pernet,48.84243457133779,2.2921819612383847,0.2326
1137,653114443,9,4,6,Place Eustache Deschamps,48.793855,2.336637,0.4737
477,82458977,17,1,5,Place Falguière,48.83629973941847,2.3104464635252953,0.7391
976,404947652,10,20,1,Place Fernand Forest,48.849269143835926,2.2818631678819656,0.3226
1214,1034242363,28,2,2,Place François Mitterand,48.86492782016328,2.442958317697048,0.875
671,128989986,24,1,3,Place Georges Guillaumin,48.874750203956566,2.301771435325988,0.8571
1264,1057737444,5,33,12,Place Ginette Hamelin,48.837853,2.382064,0.1
1409,12943772652,23,7,0,Place Henri Dunant - Gare RER,48.787543,2.2907628,0.7667
770,210583589,23,5,2,Place Jacques Bonsergent,48.870948218595146,2.3612049221992497,0.7667
208,38263504,2,14,9,Place Jacques Madaule,48.823933787309,2.2606918215752,0.08
796,213682190,31,7,2,Place Jacques et Thérèse Tréfouël,48.842726498316644,2.3125657439231877,0.775
785,210754072,27,5,2,Place Jean Delay,48.823316,2.354336,0.7941
1050,559507144,22,2,0,Place Jean Ferrat,48.8184945213025,2.3744174838066106,0.9167
1420,15187848239,3,16,7,Place Jean Mermoz,48.9220937,2.2718348,0.1154
528,85165045,15,4,3,Place Jean-Baptiste Clément,48.81240466867336,2.3617091774940495,0.6818
732,129164969,44,0,3,Place Jean-Spire-Lemaître,48.8468428626593,2.452062070369721,0.9362
786,213674686,29,4,3,Place Jeanne d'Arc,48.829575,2.369126,0.8056
1283,1062742831,17,14,4,Place Joffre - Frédéric le Play,48.853754486938,2.3044242337346,0.4857
954,362178041,19,3,3,Place Jules Ferry,48.812107928414775,2.325837314128876,0.76
502,82584215,25,31,2,Place Lafayette,48.829654975522,2.2638675570488,0.431
819,213691848,35,3,3,Place Madeleine Daniélou,48.883498,2.282015,0.8537
879,230952057,0,27,5,Place Marcel Cachin,48.81411442356866,2.39090770483017,0.0
505,82590367,45,9,0,Place Marcel Sembat,48.83328865030686,2.2441747784614567,0.8333
1223,1056959071,39,2,1,Place Mireille Havet,48.850533,2.383756,0.9286
134,27414544,18,1,2,Place Monge,48.842761803051,2.3524079471827,0.8571
979,417088374,0,25,11,Place Mongolfier,48.815160030060376,2.4592879414558415,0.0
1248,1057302263,16,1,1,Place Nationale - Château-des-Rentiers,48.829566,2.365053,0.8889
1262,1057405802,16,0,13,Place Nelson Mandela,48.897874318180556,2.2182820737361912,0.5517
1036,501862076,9,2,10,Place Nelson Mandela ,48.862090937689715,2.196576297283173,0.4286
567,100918666,10,5,5,Place Pasdeloup,48.86265421563133,2.3670325062844237,0.5
1128,653097126,17,5,3,Place Paul Delouvrier,48.89197621431365,2.3851288855075836,0.68
1085,649888071,5,5,9,Place Paul Eluard,48.7672039733195,2.4144977331161503,0.2632
897,256403519,17,1,2,Place Pigalle,48.8827555,2.3361566,0.85
803,213685514,16,7,1,Place Robert Guillemard,48.836191728066666,2.2811267160086417,0.6667
544,99798962,0,30,2,Place Saint-André des Arts,48.85288617388103,2.3426544293761253,0.0
116,27363277,36,2,0,Place Saint-Ferdinand,48.87815529789739,2.288518047864942,0.9474
1154,653137567,2,14,6,Place Saint-Just,48.790379518724265,2.3895226791501045,0.0909
1219,1055541632,8,28,5,Place Tony de Graaff,48.8181645,2.2458109,0.1951
634,121160813,25,1,2,Place Tristan Bernard,48.8791964,2.2915403,0.8929
1095,653046029,3,26,5,Place Valhubert,48.844182577315,2.3640366643667,0.0882
952,357409723,6,12,11,Place Violet,48.84487893836502,2.2905756533145905,0.2069
1092,653042442,30,2,8,Place aux Étoiles,48.91835629408464,2.3523425683379173,0.75
146,27415083,39,2,7,Place d'Italie - Soeur Rosalie,48.831908520394,2.3546943448098,0.8125
920,284787594,37,1,2,Place d'Italie - Vincent Auriol,48.831481874467,2.3567550292319,0.925
481,82550543,16,32,3,Place de Barcelone - Mirabeau,48.847623027364,2.2735664248466,0.3137
157,27415285,16,3,3,Place de Finlande,48.86240833596654,2.311362437903881,0.7273
994,443402852,39,4,3,Place de Lévis,48.883546851533254,2.3131933808326726,0.8478
70,15291968,14,0,1,Place de Passy,48.85780291711202,2.277500546942199,0.9333
944,336511521,15,0,2,Place de Rhin et Danube,48.88192765861766,2.392586767673493,0.8824
579,101017160,28,2,2,Place de Rungis,48.82245594764965,2.347382729482953,0.875
1202,985828965,2,32,5,Place de Verdun,48.8202823,2.473775,0.0513
485,82554786,27,1,1,Place de l'Eglise - Pantin,48.892809461520265,2.4124351143836975,0.931
1081,632086890,3,18,6,Place de l'Eglise - Vitry-sur-Seine,48.791922819921815,2.395057752728462,0.1111
1125,653091677,5,16,2,Place de l'Europe - Alfortville,48.78913702405837,2.4284800887107854,0.2174
1276,1062238429,1,12,4,Place de l'Europe - Quai de Bercy,48.82529858840266,2.3945679143071175,0.0588
257,48800374,5,3,3,Place de l'Hôtel de Ville,48.8573314,2.351458,0.4545
183,35101194,12,12,4,Place de l'Insurrection d'Août 1944 ,48.81477852751594,2.398074567317963,0.4286
828,213699913,12,9,9,Place de l'Édit de Nantes,48.88879,2.3785,0.4
967,380891087,4,24,5,Place de la Bastille - Bourdon,48.852364355271,2.3681089282036,0.1212
1167,653156540,33,0,2,Place de la Division Leclerc,48.793824988636516,2.2731140430551027,0.9429
730,129152818,16,2,3,Place de la Fraternité,48.85716405838368,2.422847449779511,0.7619
880,235197110,5,35,6,Place de la Gare,48.80253358011283,2.4275037646293645,0.1087
1285,1062797394,8,14,4,Place de la Madeleine - Royale,48.869228052648,2.324421107769,0.3077
176,30641281,10,4,4,Place de la Montagne du Goulet,48.8443415,2.2773844,0.5556
24,30730,31,1,3,Place de la Nation - Charonne,48.848364667777,2.3997623859813,0.8857
309,54000570,34,2,0,Place de la Nation - Picpus,48.846821681548,2.4001130461693,0.9444
418,74635382,42,0,5,Place de la Nation - Taillebourg,48.8488408,2.3973043,0.8936
1413,13373712848,23,0,1,Place de la Paix - Abbé Saint-Pierre,48.86462724459225,2.2047570338469806,0.9583
706,129093478,18,5,4,Place de la Porte de Champerret,48.88561741628322,2.290781411279206,0.6667
1087,652120758,51,2,4,Place de la Porte de Châtillon,48.8242469,2.3186306,0.8947
1104,653063170,28,0,11,Place de la Porte de Paris,48.93009363207303,2.3564037680625916,0.7179
807,213686749,30,1,4,Place de la Porte de Passy,48.857341095470794,2.2644165538827115,0.8571
389,66491389,34,13,9,Place de la Reine Astrid,48.86492098253841,2.302549182385926,0.6071
991,442739463,6,5,4,Place de la République - Temple,48.867211201859,2.3635464370545,0.4
689,129050965,4,4,9,Place de la République - Voltaire,48.866830968942,2.3654810339212,0.2353
425,75352635,18,1,6,Place de la vache noire,48.81040517059777,2.327060401439667,0.72
382,66491379,9,0,2,Place des Abbesses,48.884542726149725,2.3386867716908455,0.8182
367,58311330,14,3,5,Place des Droits de l'Enfant,48.8274804,2.3319217,0.6364
1215,1034247348,25,0,9,Place des Larris,48.8568363,2.4780236,0.7353
482,82550925,21,9,5,Place des Marseillais,48.82663907252554,2.4059280753135686,0.6
949,341388492,28,10,7,Place des Ternes.,48.878438631226516,2.297727763652802,0.6222
546,99886640,17,6,0,Place des Victoires,48.8660354,2.3420333,0.7391
966,379063990,18,0,3,Place du 14 Juillet,48.8192669595252,2.30119988322258,0.8571
1401,11874261013,3,11,3,Place du 17 Octobre,48.91962690034779,2.2978286134199792,0.1765
1108,653072212,5,12,13,Place du 8 mai 1945,48.938882272105374,2.3566243797540665,0.1667
79,15383032,3,18,5,Place du Canada,48.865346269362675,2.310193787964762,0.1154
636,123546861,24,0,1,Place du Colonel Fabien,48.87756832086,2.3698791861534,0.96
1099,653055049,27,1,7,Place du Cornillon - Stade de France,48.92540695835961,2.3644426837563515,0.7714
248,42950428,36,11,2,Place du Docteur Yersin,48.82010494991975,2.3725583776831627,0.7347
1111,653076393,25,3,4,Place du Front Populaire - George Sand,48.90680713698062,2.364541214992642,0.7812
1197,976762284,18,0,9,Place du Général de Gaulle,48.8525288,2.4877332,0.6667
655,128843085,2,6,19,Place du Lieutenant Henri Karcher,48.863490871724466,2.3400671035051346,0.0741
1022,484387018,30,0,1,Place du Maquis du Vercors,48.877321579493575,2.4083782732486725,0.9677
815,213690256,44,1,1,Place du Maréchal Juin - Péreire,48.885263,2.298286,0.9565
616,102339791,23,3,1,Place du Maréchal de Lattre de Tassigny,48.821707715257055,2.2853431485432423,0.8519
595,101761298,28,9,8,Place du Moulin de Javel,48.84021670922,2.2716060653329,0.6222
276,53999465,67,0,0,Place du Palais Royal,48.862382970647,2.3384822532535,1.0
915,275968458,54,1,2,Place du Président Salvador Allende,48.897307310356055,2.40079153681279,0.9474
1261,1057399900,11,7,6,Placette Grégoire Collas,48.94342014002797,2.2487476095557213,0.4583
426,75525462,36,3,6,Plantes - Moulin Vert,48.83005755305626,2.3232302069664006,0.8
169,27415500,18,5,2,Point du Jour - Jean Jaurès,48.828753141436465,2.245911467014621,0.72
1123,653089942,13,3,6,Poissonniers - Championnet,48.89543299733937,2.3530178144574165,0.5909
1216,1035816937,20,0,5,Poissonniers - Nord,48.892511213520656,2.3522228747606277,0.8
553,100770878,2,20,2,Poissy - Saint-Germain,48.84969649427,2.3529685288668,0.0833
956,363735875,4,14,0,Pont De Charenton,48.8179685,2.4199531,0.2222
1206,1002059045,11,12,3,Pont Neuf - Rivoli,48.860089892617,2.344057559967,0.4231
982,419991048,45,2,2,Pont de Levallois-bécon ,48.8984179,2.2791311,0.9184
26,36003,2,6,14,Pont de Lodi - Dauphine,48.855296898603285,2.339947307565249,0.0909
1155,653139063,42,0,4,Pont de Suresnes,48.8674150923217,2.225894667961703,0.913
3,6295,5,17,1,Pontoise - La Tournelle,48.85045800918843,2.352454275492188,0.2174
1426,16043282800,30,0,0,Port - Maurice Chevalier,48.832024486306,2.490271087056,1.0
189,35263507,15,1,6,Port Royal - Hôpital Cochin,48.838373233813286,2.340717874467373,0.6818
782,210749865,16,0,0,Port-Royal - Hôpital du Val-de-Grâce,48.8376682728114,2.344813834660711,1.0
864,220502135,20,4,8,Porte Dorée,48.8354337,2.4077132,0.625
818,213691542,0,0,0,Porte Maillot - Pereire,48.877775,2.284444,
484,82554449,45,12,2,Porte Molitor,48.84524763511433,2.2569015249609947,0.7627
1043,521393180,17,1,4,Porte Pouchet-Bessières,48.8978765,2.3230632,0.7727
750,210394523,25,2,4,Porte Saint-Martin,48.86860172112996,2.35570102930069,0.8065
814,213689815,28,2,4,Porte d'Asnières,48.89035817610495,2.3036286234855656,0.8235
337,54000608,45,4,3,Porte d'Aubervilliers,48.89859661942376,2.3689722642302513,0.8654
108,27363103,13,3,16,Porte d'Auteuil,48.8479394142243,2.2608396783471107,0.4062
1000,453172172,7,4,2,Porte d'Italie,48.817161987718954,2.360236309468746,0.5385
469,82432573,43,4,0,Porte d'Ivry,48.82176874759649,2.3688706755638127,0.9149
250,43155320,46,0,1,Porte d'Orléans,48.8227639,2.3249313,0.9787
346,54000619,29,1,2,Porte de Bagnolet,48.864707139122984,2.408344637349607,0.9062
575,101010226,44,3,16,Porte de Charenton,48.83124010585643,2.3989107459783554,0.6984
1395,11438116799,19,13,4,Porte de Clichy - Place des Nations Unies,48.896737263309504,2.310542999196392,0.5278
1124,653091206,35,1,2,Porte de Clignancourt - Ney,48.899641123987095,2.344321422278881,0.9211
870,221041655,54,1,1,Porte de Clignancourt.,48.897488,2.343996,0.9643
12,6512,14,0,1,Porte de Ménilmontant,48.8691543609174,2.40932246879487,0.9333
1126,653092274,30,1,0,Porte de Pantin.,48.889199725577,2.3950181901455,0.9677
700,129083553,20,4,6,Porte de Saint Cloud - Parc des Princes,48.83866275706582,2.2525164484977727,0.6667
707,129094535,40,1,1,Porte de Saint-Ouen - Bessières,48.89792240854517,2.32851451022192,0.9524
1269,1057769632,21,2,0,Porte de Saint-Ouen - Henri Huchard,48.898708366365064,2.3295360803604126,0.913
1189,828134511,24,2,6,Porte de Vanves,48.828012849445,2.3056878894567,0.75
1436,16529911795,0,0,0,Porte de Versailles,48.832324016657,2.2875617349045,
95,27071684,30,1,2,Porte de Vincennes,48.846454,2.415514,0.9091
451,82339935,33,0,2,Porte de la Muette,48.86302317841182,2.2687188170157406,0.9429
113,27363205,34,0,1,Porte de la Plaine,48.82805169605981,2.2924277186393742,0.9714
99,27278603,22,2,0,Porte de la Villette,48.89835196548483,2.386150136590004,0.9167
1032,491932748,35,1,2,Porte des Lilas - Faidherbe,48.87861855668978,2.4120327830314636,0.9211
1027,488800137,25,1,0,Portugais - Kléber,48.8712148,2.2937349,0.9615
1311,1064008882,15,1,4,Poulet - Barbès,48.887148,2.349064,0.75
692,129061615,0,20,13,Primo Levi - Frigos,48.83094844846017,2.37965351592796,0.0
981,419381597,12,33,4,Professeur René Leriche - Général Leclerc ,48.90782845483013,2.307887971401215,0.2449
841,213952930,30,0,0,Proudhon - Président Wilson,48.906442763495,2.3584905266762,1.0
510,84979504,21,1,2,Provence - Chaussée d'Antin,48.87428447542072,2.332976511564311,0.875
47,52456,26,1,1,Pré Saint-Gervais - Lilas,48.87787062698808,2.39590734243393,0.9286
1434,16379269732,0,0,0,Président Roosevelt - Rouget de Lisle,48.83047518749,2.2616135525345,
1004,458086607,7,13,6,Président Wilson - Baudin,48.89826887103676,2.2849336266517644,0.2692
1023,484423835,13,5,5,Président Wilson - Jean Jaures,48.89034054052266,2.2920683026313786,0.5652
1039,508042092,19,10,5,Pyramide - Ecole du Breuil ,48.82237977153955,2.4586871266365056,0.5588
1225,1056972307,31,10,7,Pyramide - Parc Floral,48.837442,2.440452,0.6458
343,54000616,28,1,1,Pyrénées - Avron,48.853246898211985,2.405871044529538,0.9333
501,82583924,28,0,0,Pyrénées - Charles Renouvier,48.86095933229224,2.400421852042113,1.0
531,89553051,15,5,1,Pyrénées - Cours de Vincennes,48.847796779935,2.4061721563339,0.7143
227,39878420,17,0,1,Pyrénées - Dagorno,48.855425770695085,2.4051643162965775,0.9444
607,102324803,38,0,2,Pyrénées - Emmery,48.872010281270974,2.392039597034455,0.95
345,54000618,15,1,1,Pyrénées - Maraîchers,48.85714001395299,2.4043509364128113,0.8824
520,85123644,26,0,0,Pyrénées - Ménilmontant,48.8693268535238,2.395084574818611,1.0
194,35472299,9,2,1,Pyrénées - Plaine,48.85026702458,2.4062821269035,0.75
1316,1074204954,3,21,4,Quai Jules Guesde - Saint-Simon,48.80391487218989,2.408966162027371,0.1071
912,269953055,16,8,2,Quai Marcel Boyer - Victor Hugo,48.82255636666729,2.392039597034455,0.6154
581,101024234,21,29,5,Quai Panhard et Levassor,48.82837482809675,2.384273745805574,0.3818
290,54000548,14,1,14,Quai Voltaire,48.85894298617901,2.331418204714572,0.4828
98,27269170,7,5,5,Quai aux Fleurs - Pont Saint-Louis,48.85291595620935,2.352195717394352,0.4118
1093,653042678,3,16,5,Quai de Béthune - Pont de la Tournelle,48.85097433194032,2.356307208538055,0.125
1168,653159330,5,18,3,Quai de Sèvres - Manufacture Nationale,48.828688,2.22499,0.1923
923,285726279,21,0,3,Quai de Valmy,48.88126951579429,2.368186041712761,0.875
847,214019379,22,2,2,Quai de l'Aisne - Général Leclerc,48.895713,2.400571,0.8462
940,323616530,6,7,3,Quai de l'Horloge - Pont Neuf,48.857058739111096,2.341798283943937,0.375
1008,468354634,26,2,1,Quai de l'Oise - Aisne,48.8906231,2.3833701,0.8966
1249,1057319366,2,25,2,Quai de la Gare - Pont de Bercy,48.83730787972,2.3740861260598,0.069
605,102319838,8,2,6,Quai de la Loire - Jean Jaurès,48.88339733854529,2.371074522980134,0.5
823,213693511,20,1,2,Quai de la Seine,48.884492238407525,2.3703941702842717,0.8696
1040,516395829,2,8,5,Quai des Célestins - Henri IV,48.8512971,2.3624535,0.1333
1252,1057335613,14,15,0,Quai du Président Roosevelt - Pont Aval,48.8343883676388,2.2656820714473724,0.4828
289,54000547,3,18,16,Quatre Vents - Carrefour de l'Odéon,48.851751374458864,2.338161695134053,0.0811
813,213689228,30,6,6,Raffet - Montmorency,48.85258670812,2.2629252456151954,0.7143
638,124176568,14,0,1,Rampal - Belleville,48.87302160156,2.3799109831452,0.9333
1072,599135701,38,1,4,Ramponeau - Belleville,48.871031137596,2.379056852114,0.8837
1326,1190800638,13,1,6,Ranelagh - Maison de la Radio,48.85293603169479,2.280449643731117,0.65
111,27363162,19,4,0,Ranelagh - Mozart,48.8554439,2.2704418,0.8261
292,54000550,5,15,9,Rapp - Place du Général Gouraud,48.858102885107,2.3004072904587,0.1724
